,Request #,Status,Request Type,Subrequest Type,Additional Subrequest Type,date_opened,date_closed,Request Origin,System of Origin ID,Contact Type,Preferred Language,State Issue,Parent Request,Closed When Created,Address,City,Council District,ZIP,Latitude,Longitude,Mapped Location,Day,Month,Resolution Time
61,346122,Closed,COVID-19,COVID-19 Violations,COVID-19 Violations,2020-04-15 11:33:26,2020-04-16 14:55:01,hubNashville Community,,,,False,,False,928 6th Ave S,NASHVILLE,17.0,37203,36.1490396,-86.77227289999998,"(36.1490396, -86.77227289999999)",15,4,1 days 03:21:35
95,339374,Closed,COVID-19,COVID-19 Violations,COVID-19 Violations,2020-04-04 18:13:59,2020-04-09 13:07:22,hubNashville Community,,,,False,,False,500 Gallatin Ave,NASHVILLE,5.0,37206,36.181548,-86.74969499999999,"(36.181548, -86.749695)",4,4,4 days 18:53:23
110,343513,Closed,COVID-19,COVID-19 Violations,COVID-19 Violations,2020-04-10 10:40:08,2020-04-14 19:39:09,hubNashville Community,,,,False,,False,5720 Crossings Blvd,,,,36.039608,-86.646541,"(36.039608, -86.646541)",10,4,4 days 08:59:01
113,442996,Closed,COVID-19,COVID-19 Violations,COVID-19 Violations,2020-08-12 02:05:29,2020-08-12 16:03:35,hubNashville Community,,,,False,,False,7689 Hwy 70 S,NASHVILLE,22.0,37221,36.07893290000001,-86.9533998,"(36.07893290000001, -86.9533998)",12,8,0 days 13:58:06
118,339423,Closed,COVID-19,COVID-19 Violations,COVID-19 Violations,2020-04-04 20:12:27,2020-04-09 14:21:09,hubNashville Community,,,,False,,False,5310 Mt View Rd,ANTIOCH,32.0,37013,36.048181899999996,-86.64844740000001,"(36.0481819, -86.6484474)",4,4,4 days 18:08:42
140,407667,Closed,COVID-19,COVID-19 Violations,COVID-19 Violations,2020-07-04 19:59:51,2020-07-06 17:55:19,hubNashville Community,,,,False,,False,945 Allen Rd,NASHVILLE,15.0,37214,36.1502218,-86.6657714,"(36.1502218, -86.6657714)",4,7,1 days 21:55:28
217,339307,Closed,COVID-19,COVID-19 Violations,COVID-19 Violations,2020-04-04 14:51:37,2020-04-08 14:07:35,Mobile App,,,,False,,False,1635 County Hospital Rd,NASHVILLE,2.0,37218,36.188965996998895,-86.83828496632778,"(36.1889659969989, -86.83828496632778)",4,4,3 days 23:15:58
221,339479,Closed,COVID-19,COVID-19 Violations,COVID-19 Violations,2020-04-04 23:54:18,2020-04-10 17:26:46,hubNashville Community,,,,False,,False,1524 Gallatin Ave,NASHVILLE,5.0,37206,36.1942946,-86.74391609999998,"(36.1942946, -86.74391609999999)",4,4,5 days 17:32:28
231,339684,Closed,COVID-19,COVID-19 Violations,COVID-19 Violations,2020-04-05 21:29:17,2020-04-13 13:57:02,hubNashville Community,,,,False,,False,301 14th Ave N,NASHVILLE,19.0,37203,36.159267911605305,-86.79323699999998,"(36.159267911605305, -86.79323699999999)",5,4,7 days 16:27:45
269,343647,Closed,COVID-19,COVID-19 Violations,COVID-19 Violations,2020-04-10 14:19:57,2020-04-15 15:10:42,hubNashville Community,,,,False,,False,5824 Nolensville Pike,NASHVILLE,27.0,37211,36.042074911555545,-86.70945799999998,"(36.04207491155555, -86.70945799999998)",10,4,5 days 00:50:45
297,339634,Closed,COVID-19,COVID-19 Violations,COVID-19 Violations,2020-04-05 18:53:39,2020-04-10 16:46:22,Mobile App,,,,False,,False,205 E Webster St,MADISON,7.0,37115,36.251657767934866,-86.71624962240458,"(36.25165776793487, -86.71624962240458)",5,4,4 days 21:52:43
304,393364,Closed,COVID-19,COVID-19 Violations,COVID-19 Violations,2020-06-16 16:40:49,2020-06-17 17:46:09,hubNashville Community,,,,False,,False,1522 Demonbreun St,NASHVILLE,19.0,37203,36.1530528,-86.79032219999998,"(36.1530528, -86.79032219999999)",16,6,1 days 01:05:20
311,410654,Closed,COVID-19,COVID-19 Violations,COVID-19 Violations,2020-07-08 13:51:51,2020-07-09 17:42:14,Phone,,,,False,,False,2001 8th Ave S,NASHVILLE,17.0,37204,36.13393,-86.77946,"(36.13393, -86.77946)",8,7,1 days 03:50:23
349,339505,Closed,COVID-19,COVID-19 Violations,COVID-19 Violations,2020-04-05 01:29:35,2020-04-09 17:04:10,hubNashville Community,,,,False,,False,4205 Blackwater Dr,NASHVILLE,22.0,37221,36.06994917111437,-86.97841879627802,"(36.069949171114374, -86.97841879627802)",5,4,4 days 15:34:35
351,408021,Closed,COVID-19,COVID-19 Violations,COVID-19 Violations,2020-07-05 21:22:56,2020-07-06 17:15:20,hubNashville Community,,,,False,,False,5824 Nolensville Pike,NASHVILLE,27.0,37211,36.041940000000004,-86.70918,"(36.04194, -86.70918)",5,7,0 days 19:52:24
366,363493,Closed,COVID-19,COVID-19 Violations,COVID-19 Violations,2020-05-10 01:48:46,2020-05-11 14:53:41,hubNashville Community,,,,False,,False,2450 Music Valley Dr,NASHVILLE,15.0,37214,36.221387311631744,-86.69452069325409,"(36.22138731163174, -86.69452069325409)",10,5,1 days 13:04:55
450,339415,Closed,COVID-19,COVID-19 Violations,COVID-19 Violations,2020-04-04 19:57:37,2020-04-08 19:41:09,hubNashville Community,,,,False,,False,4806 Colorado Ave,NASHVILLE,24.0,37209,36.14226268781836,-86.84500030235847,"(36.14226268781836, -86.84500030235847)",4,4,3 days 23:43:32
471,339687,Closed,COVID-19,COVID-19 Violations,COVID-19 Violations,2020-04-05 21:42:37,2020-04-13 15:55:30,hubNashville Community,,,,False,,False,912 Kalvesta Ct,ANTIOCH,33.0,37013,36.07739229999999,-86.5996043,"(36.0773923, -86.5996043)",5,4,7 days 18:12:53
499,339270,Closed,COVID-19,COVID-19 Violations,COVID-19 Violations,2020-04-04 10:35:33,2020-04-08 17:40:56,Mobile App,,,,False,,False,349 Peabody St,NASHVILLE,19.0,37210,36.156057956276726,-86.7735066747809,"(36.156057956276726, -86.7735066747809)",4,4,4 days 07:05:23
500,339335,Closed,COVID-19,COVID-19 Violations,COVID-19 Violations,2020-04-04 16:19:49,2020-04-09 12:46:34,hubNashville Community,,,,False,,False,2535 Powell Ave,NASHVILLE,16.0,37204,36.1075618336896,-86.76534760488127,"(36.1075618336896, -86.76534760488126)",4,4,4 days 20:26:45
501,339690,Closed,COVID-19,COVID-19 Violations,COVID-19 Violations,2020-04-05 21:56:27,2020-04-10 18:14:52,Mobile App,,,,False,,False,276 White Bridge Pike,NASHVILLE,24.0,37209,36.14279989999999,-86.85698509999999,"(36.14279989999999, -86.8569851)",5,4,4 days 20:18:25
537,350516,Closed,COVID-19,COVID-19 Violations,COVID-19 Violations,2020-04-22 15:15:50,2020-04-24 15:31:46,Phone,,,,False,,False,1621 Heil Quaker Blvd,LAVERGNE,33.0,37086,36.018956,-86.60790899999998,"(36.018956, -86.60790899999999)",22,4,2 days 00:15:56
566,350903,Closed,COVID-19,COVID-19 Violations,COVID-19 Violations,2020-04-22 20:39:47,2020-04-24 15:19:51,Phone,,,,False,,False,330 Gallatin Pike S,MADISON,8.0,37115,36.25929,-86.71351999999999,"(36.25929, -86.71352)",22,4,1 days 18:40:04
578,347509,Closed,COVID-19,COVID-19 Violations,COVID-19 Violations,2020-04-16 20:49:07,2020-04-20 15:41:56,hubNashville Community,,,,False,,False,556 Metroplex Dr,NASHVILLE,13.0,37211,36.09503529999999,-86.70415659999998,"(36.0950353, -86.70415659999999)",16,4,3 days 18:52:49
634,347648,Closed,COVID-19,COVID-19 Violations,COVID-19 Violations,2020-04-17 01:26:24,2020-04-20 15:34:01,hubNashville Community,,,,False,,False,601 Oak Forest Ln,ANTIOCH,28.0,37013,36.0774565,-86.65536920000001,"(36.0774565, -86.6553692)",17,4,3 days 14:07:37
683,456019,Closed,COVID-19,COVID-19 Violations,COVID-19 Violations,2020-09-01 14:26:46,2020-09-02 14:02:49,Phone,,,,False,,False,7034 Charlotte Pike,NASHVILLE,35.0,37209,36.12897,-86.90594,"(36.12897, -86.90594)",1,9,0 days 23:36:03
687,421724,Closed,COVID-19,COVID-19 Violations,COVID-19 Violations,2020-07-21 04:32:08,2020-07-21 17:44:41,hubNashville Community,,,,False,,False,1900 Belmont Blvd,NASHVILLE,18.0,37212,36.1329081,-86.79417020000001,"(36.1329081, -86.7941702)",21,7,0 days 13:12:33
708,347616,Closed,COVID-19,COVID-19 Violations,COVID-19 Violations,2020-04-16 23:17:11,2020-04-20 16:00:17,hubNashville Community,,,,False,,False,8103 Moores Ln,,,,35.9637606,-86.80453709999998,"(35.9637606, -86.80453709999999)",16,4,3 days 16:43:06
721,363501,Closed,COVID-19,COVID-19 Violations,COVID-19 Violations,2020-05-10 02:52:52,2020-05-11 15:14:50,hubNashville Community,,,,False,,False,1024 40th Ave N,NASHVILLE,21.0,37209,36.1632941,-86.83730940000001,"(36.1632941, -86.8373094)",10,5,1 days 12:21:58
723,358533,Closed,COVID-19,COVID-19 Violations,COVID-19 Violations,2020-05-04 19:43:26,2020-05-05 15:02:09,Phone,,,,False,,False,W Trinity Ln & Whites Creek Pike,NASHVILLE,2.0,37207,36.20704,-86.7916,"(36.20704, -86.7916)",4,5,0 days 19:18:43
731,339462,Closed,COVID-19,COVID-19 Violations,COVID-19 Violations,2020-04-04 22:47:05,2020-04-09 15:07:19,Mobile App,,,,False,,False,365 Harding Pl,NASHVILLE,30.0,37211,36.0842141,-86.70475119999998,"(36.0842141, -86.70475119999999)",4,4,4 days 16:20:14
732,339655,Closed,COVID-19,COVID-19 Violations,COVID-19 Violations,2020-04-05 19:44:07,2020-04-10 17:12:03,Mobile App,,,,False,,False,3021 Lealand Ln,NASHVILLE,17.0,37204,36.1181343,-86.7883402,"(36.1181343, -86.7883402)",5,4,4 days 21:27:56
746,339309,Closed,COVID-19,COVID-19 Violations,COVID-19 Violations,2020-04-04 14:54:18,2020-04-09 12:35:08,hubNashville Community,,,,False,,False,3430 Doverside Dr,NASHVILLE,3.0,37207,36.24340082151323,-86.75808992431796,"(36.24340082151323, -86.75808992431796)",4,4,4 days 21:40:50
776,339525,Closed,COVID-19,COVID-19 Violations,COVID-19 Violations,2020-04-05 04:33:06,2020-04-13 16:20:10,hubNashville Community,,,,False,,False,3719 Amy Lynn Dr,NASHVILLE,1.0,37218,36.20508399999999,-86.883618,"(36.20508399999999, -86.883618)",5,4,8 days 11:47:04
777,339324,Closed,COVID-19,COVID-19 Violations,COVID-19 Violations,2020-04-04 15:45:19,2020-04-08 15:49:22,hubNashville Community,,,,False,,False,1900 Midway Ln,,,,35.930011,-86.53784,"(35.930011, -86.53784)",4,4,4 days 00:04:03
801,339602,Closed,COVID-19,COVID-19 Violations,COVID-19 Violations,2020-04-05 17:16:14,2020-04-13 16:03:08,hubNashville Community,,,,False,,False,4601 Murphy Rd,NASHVILLE,24.0,37209,36.14151600000001,-86.84199,"(36.14151600000001, -86.84199)",5,4,7 days 22:46:54
802,422452,Closed,COVID-19,COVID-19 Violations,COVID-19 Violations,2020-07-21 20:14:06,2020-07-22 19:04:52,Phone,,,,False,,False,1436 Robinson Rd,OLD HICKORY,11.0,37138,36.256209999999996,-86.65518,"(36.25621, -86.65518)",21,7,0 days 22:50:46
807,339502,Closed,COVID-19,COVID-19 Violations,COVID-19 Violations,2020-04-05 01:26:04,2020-04-09 17:05:57,Mobile App,,,,False,,False,2826 Hartford Dr,NASHVILLE,16.0,37210,36.11007968304747,-86.73321459442377,"(36.11007968304747, -86.73321459442377)",5,4,4 days 15:39:53
809,339368,Closed,COVID-19,COVID-19 Violations,COVID-19 Violations,2020-04-04 17:47:39,2020-04-09 17:58:47,Mobile App,,Resident,,False,,False,901 E Old Hickory Blvd,MADISON,9.0,37115,36.26314441025772,-86.69042141051655,"(36.263144410257716, -86.69042141051655)",4,4,5 days 00:11:08
810,339646,Closed,COVID-19,COVID-19 Violations,COVID-19 Violations,2020-04-05 19:21:00,2020-04-10 16:59:35,Mobile App,,,,False,,False,708 Garfield St,NASHVILLE,19.0,37208,36.181068332247094,-86.79592095315456,"(36.181068332247094, -86.79592095315456)",5,4,4 days 21:38:35
816,343206,Closed,COVID-19,COVID-19 Violations,COVID-19 Violations,2020-04-09 19:10:44,2020-04-10 18:39:58,Phone,,,,False,,False,578 Aldi Blvd,,,,36.06219,-86.43791999999999,"(36.06219, -86.43792)",9,4,0 days 23:29:14
833,339506,Closed,COVID-19,COVID-19 Violations,COVID-19 Violations,2020-04-05 01:32:43,2020-04-09 17:08:44,hubNashville Community,,,,False,,False,5415 Louisiana Ave,NASHVILLE,20.0,37209,36.1618989,-86.85433119999998,"(36.1618989, -86.85433119999999)",5,4,4 days 15:36:01
837,343481,Closed,COVID-19,COVID-19 Violations,COVID-19 Violations,2020-04-10 03:36:22,2020-04-10 17:32:56,hubNashville Community,,,,False,,False,602 Joseph Ave,NASHVILLE,5.0,37207,36.18131206378229,-86.77262531962357,"(36.18131206378229, -86.77262531962357)",10,4,0 days 13:56:34
853,396784,Closed,COVID-19,COVID-19 Violations,COVID-19 Violations,2020-06-19 21:01:31,2020-06-22 18:04:07,Phone,,,,False,,False,4054 Andrew Jackson Way,HERMITAGE,11.0,37076,36.18615,-86.60852,"(36.18615, -86.60852)",19,6,2 days 21:02:36
854,339271,Closed,COVID-19,COVID-19 Violations,COVID-19 Violations,2020-04-04 10:42:23,2020-04-08 17:41:32,hubNashville Community,,,,False,,False,2440 Couchville Pike,,,,36.118115,-86.650633,"(36.118115, -86.650633)",4,4,4 days 06:59:09
856,339411,Closed,COVID-19,COVID-19 Violations,COVID-19 Violations,2020-04-04 19:45:44,2020-04-08 19:33:11,hubNashville Community,,,,False,,False,6216 Robin Hill Rd,NASHVILLE,23.0,37205,36.107167,-86.8830868,"(36.107167, -86.8830868)",4,4,3 days 23:47:27
859,339373,Closed,COVID-19,COVID-19 Violations,COVID-19 Violations,2020-04-04 18:12:08,2020-04-09 13:06:19,hubNashville Community,,,,False,,False,3759 Nolensville Pike,NASHVILLE,26.0,37211,36.091896221926014,-86.73550804195959,"(36.091896221926014, -86.7355080419596)",4,4,4 days 18:54:11
887,442688,Closed,COVID-19,COVID-19 Violations,COVID-19 Violations,2020-08-11 19:07:55,2020-08-12 16:09:15,Phone,,,,False,,False,1711 Division St,NASHVILLE,19.0,37203,36.1513,-86.79408000000001,"(36.1513, -86.79408)",11,8,0 days 21:01:20
937,353955,Closed,COVID-19,COVID-19 Violations,COVID-19 Violations,2020-04-28 14:16:05,2020-05-01 14:45:37,hubNashville Community,,,,False,,False,4617 Old Hickory Blvd,OLD HICKORY,14.0,37138,36.2026721,-86.6218383,"(36.2026721, -86.6218383)",28,4,3 days 00:29:32
939,354390,Closed,COVID-19,COVID-19 Violations,COVID-19 Violations,2020-04-28 20:08:27,2020-05-01 14:55:21,hubNashville Community,,,,False,,False,4723 Andrew Jackson Pkwy,HERMITAGE,11.0,37076,36.2169521,-86.5972,"(36.2169521, -86.5972)",28,4,2 days 18:46:54
948,417292,Closed,COVID-19,COVID-19 Violations,COVID-19 Violations,2020-07-15 18:55:09,2020-07-16 15:22:40,Phone,,,,False,,False,2304 Murfreesboro Pike,NASHVILLE,29.0,37217,36.086481799999994,-86.64767479999998,"(36.0864818, -86.64767479999999)",15,7,0 days 20:27:31
951,339480,Closed,COVID-19,COVID-19 Violations,COVID-19 Violations,2020-04-04 23:56:11,2020-04-13 15:54:43,Mobile App,,,,False,,False,4728 McBride Rd,ANTIOCH,28.0,37013,36.066984087953436,-86.67327728122473,"(36.06698408795344, -86.67327728122473)",4,4,8 days 15:58:32
952,339598,Closed,COVID-19,COVID-19 Violations,COVID-19 Violations,2020-04-05 17:14:55,2020-04-13 16:15:59,Mobile App,,,,False,,False,Hummingbird Dr,NASHVILLE,1.0,37218,36.21882149999999,-86.82289875,"(36.21882149999999, -86.82289875)",5,4,7 days 23:01:04
953,417210,Closed,COVID-19,COVID-19 Violations,COVID-19 Violations,2020-07-15 18:00:02,2020-07-16 17:14:48,Phone,,,,False,,False,1 Club Dr,NASHVILLE,34.0,37215,36.04979,-86.82285,"(36.04979, -86.82285)",15,7,0 days 23:14:46
954,339706,Closed,COVID-19,COVID-19 Violations,COVID-19 Violations,2020-04-05 22:14:04,2020-04-13 13:25:38,Mobile App,,,,False,,False,1806 Jefferson St,NASHVILLE,21.0,37208,36.1696669,-86.8074563,"(36.1696669, -86.8074563)",5,4,7 days 15:11:34
958,339442,Closed,COVID-19,COVID-19 Violations,COVID-19 Violations,2020-04-04 21:30:28,2020-04-09 14:05:09,hubNashville Community,,,,False,,False,210 Anne Dallas Dudley Blvd,NASHVILLE,19.0,37219,36.163000000000004,-86.78200000000001,"(36.163, -86.782)",4,4,4 days 16:34:41
959,339451,Closed,COVID-19,COVID-19 Violations,COVID-19 Violations,2020-04-04 22:07:12,2020-04-09 14:56:56,Mobile App,,,,False,,False,7219 TN-100,NASHVILLE,34.0,37221,36.06103524800776,-86.90603887662293,"(36.061035248007755, -86.90603887662292)",4,4,4 days 16:49:44
960,339637,Closed,COVID-19,COVID-19 Violations,COVID-19 Violations,2020-04-05 19:01:24,2020-04-10 16:13:28,hubNashville Community,,,,False,,False,315 Bridgeway Ave,OLD HICKORY,11.0,37138,36.269368,-86.666108,"(36.269368, -86.666108)",5,4,4 days 21:12:04
961,339597,Closed,COVID-19,COVID-19 Violations,COVID-19 Violations,2020-04-05 17:13:59,2020-04-10 17:19:55,Mobile App,,,,False,,False,4001 Harding Pike,NASHVILLE,24.0,37205,36.12837600000001,-86.8345785,"(36.12837600000001, -86.8345785)",5,4,5 days 00:05:56
962,339523,Closed,COVID-19,COVID-19 Violations,COVID-19 Violations,2020-04-05 03:58:25,2020-04-10 17:00:48,Mobile App,,,,False,,False,2313 25th Ave N,NASHVILLE,2.0,37208,36.18798400000001,-86.81700359999998,"(36.18798400000001, -86.81700359999999)",5,4,5 days 13:02:23
983,422610,Closed,COVID-19,COVID-19 Violations,COVID-19 Violations,2020-07-21 23:17:43,2020-07-22 19:14:47,hubNashville Community,,,,False,,False,353 W Thompson Ln,NASHVILLE,16.0,37211,36.1109624,-86.7457512,"(36.1109624, -86.7457512)",21,7,0 days 19:57:04
1031,347543,Closed,COVID-19,COVID-19 Violations,COVID-19 Violations,2020-04-16 21:12:32,2020-04-21 13:54:43,Phone,,,,False,,False,1200 Lone Oak Rd,NASHVILLE,25.0,37215,36.09437,-86.80570999999999,"(36.09437, -86.80571)",16,4,4 days 16:42:11
1032,350670,Closed,COVID-19,COVID-19 Violations,COVID-19 Violations,2020-04-22 17:04:16,2020-04-24 15:24:39,hubNashville Community,,,,False,,False,1813 8th Ave S,NASHVILLE,17.0,37203,36.13537,-86.77945759999999,"(36.13537, -86.7794576)",22,4,1 days 22:20:23
1057,339656,Closed,COVID-19,COVID-19 Violations,COVID-19 Violations,2020-04-05 19:45:15,2020-04-13 15:53:22,hubNashville Community,,,,False,,False,Unnamed Road,ANTIOCH,32.0,37013,36.04927788546219,-86.6572381538722,"(36.04927788546219, -86.6572381538722)",5,4,7 days 20:08:07
1060,396860,Closed,COVID-19,COVID-19 Violations,COVID-19 Violations,2020-06-19 23:06:27,2020-06-22 17:52:47,hubNashville Community,,,,False,,False,1281 3rd Ave S,NASHVILLE,17.0,37210,36.141759161597854,-86.76350010674591,"(36.141759161597854, -86.76350010674591)",19,6,2 days 18:46:20
1061,339359,Closed,COVID-19,COVID-19 Violations,COVID-19 Violations,2020-04-04 17:29:02,2020-04-09 13:00:03,hubNashville Community,,,,False,,False,2609 Gallatin Pike,NASHVILLE,5.0,37216,36.197415,-86.74239600000001,"(36.197415, -86.74239600000001)",4,4,4 days 19:31:01
1086,339670,Closed,COVID-19,COVID-19 Violations,COVID-19 Violations,2020-04-05 20:45:29,2020-04-13 15:53:05,hubNashville Community,,,,False,,False,5428 Hickory Hollow Pkwy,ANTIOCH,32.0,37013,36.0419028,-86.64921700000001,"(36.0419028, -86.649217)",5,4,7 days 19:07:36
1087,339405,Closed,COVID-19,COVID-19 Violations,COVID-19 Violations,2020-04-04 19:31:55,2020-04-08 19:21:16,Mobile App,,,,False,,False,5201 Saundersville Rd,,,,36.25109880379696,-86.5642146689075,"(36.25109880379695, -86.56421466890748)",4,4,3 days 23:49:21
1088,339496,Closed,COVID-19,COVID-19 Violations,COVID-19 Violations,2020-04-05 00:49:01,2020-04-09 17:12:37,hubNashville Community,,,,False,,False,15180 Old Hickory Blvd,NASHVILLE,27.0,37211,36.0463864,-86.72093740000001,"(36.0463864, -86.7209374)",5,4,4 days 16:23:36
1101,344367,Closed,COVID-19,COVID-19 Violations,COVID-19 Violations,2020-04-11 03:27:13,2020-04-17 13:45:39,hubNashville Community,,,,False,,False,3424 Lebanon Pike,HERMITAGE,14.0,37076,36.18934671161811,-86.6278361,"(36.189346711618114, -86.6278361)",11,4,6 days 10:18:26
1113,339403,Closed,COVID-19,COVID-19 Violations,COVID-19 Violations,2020-04-04 19:28:27,2020-04-08 19:20:44,hubNashville Community,,,,False,,False,2312 Murfreesboro Pike,NASHVILLE,29.0,37217,36.0865342,-86.64674240000002,"(36.0865342, -86.64674240000001)",4,4,3 days 23:52:17
1127,363484,Closed,COVID-19,COVID-19 Violations,COVID-19 Violations,2020-05-10 00:31:56,2020-05-11 14:56:21,hubNashville Community,,,,False,,False,1026 Primm Dr,MADISON,8.0,37115,36.280468371363824,-86.71988146924406,"(36.28046837136383, -86.71988146924406)",10,5,1 days 14:24:25
1135,339395,Closed,COVID-19,COVID-19 Violations,COVID-19 Violations,2020-04-04 19:01:12,2020-04-08 18:26:27,Mobile App,,,,False,,False,7114 Hwy 70 S,NASHVILLE,22.0,37221,36.074563700000006,-86.92266719999998,"(36.0745637, -86.92266719999999)",4,4,3 days 23:25:15
1136,339314,Closed,COVID-19,COVID-19 Violations,COVID-19 Violations,2020-04-04 15:11:58,2020-04-08 15:50:07,hubNashville Community,,,,False,,False,2535 Powell Ave,NASHVILLE,16.0,37204,36.1075618336896,-86.76534760488127,"(36.1075618336896, -86.76534760488126)",4,4,4 days 00:38:09
1152,339759,Closed,COVID-19,COVID-19 Violations,COVID-19 Violations,2020-04-06 00:31:37,2020-04-13 13:56:26,hubNashville Community,,,,False,,False,1400 Hynes St,NASHVILLE,19.0,37203,36.15920936160527,-86.79327099333594,"(36.15920936160527, -86.79327099333594)",6,4,7 days 13:24:49
1153,339719,Closed,COVID-19,COVID-19 Violations,COVID-19 Violations,2020-04-05 22:27:17,2020-04-13 16:12:12,hubNashville Community,,,,False,,False,84 Lester Ave,NASHVILLE,17.0,37210,36.143948185234315,-86.75130692062378,"(36.14394818523431, -86.75130692062378)",5,4,7 days 17:44:55
1156,339755,Closed,COVID-19,COVID-19 Violations,COVID-19 Violations,2020-04-06 00:28:02,2020-04-14 16:14:32,hubNashville Community,,,,False,,False,8197 Londonberry Rd,NASHVILLE,35.0,37221,36.0625135,-86.97705049999998,"(36.0625135, -86.97705049999999)",6,4,8 days 15:46:30
1157,339289,Closed,COVID-19,COVID-19 Violations,COVID-19 Violations,2020-04-04 13:39:04,2020-04-09 15:01:32,hubNashville Community,,,,False,,False,1613 Buchanan St,,,,36.179791200000004,-86.8105205,"(36.1797912, -86.8105205)",4,4,5 days 01:22:28
1158,339679,Closed,COVID-19,COVID-19 Violations,COVID-19 Violations,2020-04-05 20:58:09,2020-04-10 18:20:20,Mobile App,,,,False,,False,6613 Charlotte Pike,NASHVILLE,23.0,37209,36.1377164,-86.88140290000001,"(36.1377164, -86.8814029)",5,4,4 days 21:22:11
1159,339741,Closed,COVID-19,COVID-19 Violations,COVID-19 Violations,2020-04-05 23:49:54,2020-04-10 17:13:39,Mobile App,,,,False,,False,2535 Powell Ave,NASHVILLE,16.0,37204,36.10700773066301,-86.76618196070194,"(36.107007730663014, -86.76618196070194)",5,4,4 days 17:23:45
1160,339665,Closed,COVID-19,COVID-19 Violations,COVID-19 Violations,2020-04-05 20:22:26,2020-04-10 17:16:53,hubNashville Community,,,,False,,False,3021 Lealand Ln,NASHVILLE,17.0,37204,36.1191916,-86.78917170000001,"(36.1191916, -86.7891717)",5,4,4 days 20:54:27
1189,411078,Closed,COVID-19,COVID-19 Violations,COVID-19 Violations,2020-07-08 18:17:10,2020-07-09 17:19:34,Phone,,,,False,,False,2600 Gallatin Pike,NASHVILLE,7.0,37216,36.1966617,-86.74223570000001,"(36.1966617, -86.7422357)",8,7,0 days 23:02:24
1203,344077,Closed,COVID-19,COVID-19 Violations,COVID-19 Violations,2020-04-10 20:22:18,2020-04-14 15:33:49,hubNashville Community,,,,False,,False,210 Anne Dallas Dudley Blvd,NASHVILLE,19.0,37219,36.163000000000004,-86.78200000000001,"(36.163, -86.782)",10,4,3 days 19:11:31
1205,347574,Closed,COVID-19,COVID-19 Violations,COVID-19 Violations,2020-04-16 21:43:22,2020-04-21 13:51:24,Phone,,,,False,,False,609 Gallatin Pike S,MADISON,9.0,37115,36.256879999999995,-86.71365,"(36.25688, -86.71365)",16,4,4 days 16:08:02
1231,339300,Closed,COVID-19,COVID-19 Violations,COVID-19 Violations,2020-04-04 14:26:00,2020-04-09 12:28:28,Mobile App,,,,False,,False,2201 Murfreesboro Pike,NASHVILLE,28.0,37217,36.091269,-86.6519235,"(36.091269, -86.6519235)",4,4,4 days 22:02:28
1277,339660,Closed,COVID-19,COVID-19 Violations,COVID-19 Violations,2020-04-05 20:03:05,2020-04-14 19:49:31,Mobile App,,,,False,,False,3711 Bell Rd,NASHVILLE,14.0,37214,36.15227964517942,-86.62406614375048,"(36.15227964517942, -86.62406614375048)",5,4,8 days 23:46:26
1283,339795,Closed,COVID-19,COVID-19 Violations,COVID-19 Violations,2020-04-06 02:33:04,2020-04-10 18:34:39,hubNashville Community,,,,False,,False,709 Rivergate Pkwy,GOODLETTSVILLE,10.0,37072,36.30440103075658,-86.70467878895491,"(36.30440103075658, -86.70467878895491)",6,4,4 days 16:01:35
1284,339675,Closed,COVID-19,COVID-19 Violations,COVID-19 Violations,2020-04-05 20:55:35,2020-04-10 18:53:44,hubNashville Community,,,,False,,False,845 Springfield Hwy,,,37072,36.344604600000004,-86.71925739999998,"(36.3446046, -86.71925739999999)",5,4,4 days 21:58:09
1308,339393,Closed,COVID-19,COVID-19 Violations,COVID-19 Violations,2020-04-04 18:59:02,2020-04-09 13:31:44,hubNashville Community,,,,False,,False,4066 Nolensville Pike,NASHVILLE,26.0,37211,36.08037326157178,-86.72496449325409,"(36.080373261571786, -86.7249644932541)",4,4,4 days 18:32:42
1311,339577,Closed,COVID-19,COVID-19 Violations,COVID-19 Violations,2020-04-05 15:37:01,2020-04-14 16:18:41,hubNashville Community,,,,False,,False,7848 McCrory Ln,NASHVILLE,35.0,37221,36.089406,-87.020847,"(36.089406, -87.020847)",5,4,9 days 00:41:40
1312,343847,Closed,COVID-19,COVID-19 Violations,COVID-19 Violations,2020-04-10 16:49:27,2020-04-16 15:38:00,hubNashville Community,,,,False,,False,2118 Scott Ave,NASHVILLE,7.0,37216,36.19821591162186,-86.73296144999998,"(36.19821591162186, -86.73296144999999)",10,4,5 days 22:48:33
1326,339413,Closed,COVID-19,COVID-19 Violations,COVID-19 Violations,2020-04-04 19:47:44,2020-04-08 19:36:36,hubNashville Community,,,,False,,False,6216 Robin Hill Rd,NASHVILLE,23.0,37205,36.107167,-86.8830868,"(36.107167, -86.8830868)",4,4,3 days 23:48:52
1327,339362,Closed,COVID-19,COVID-19 Violations,COVID-19 Violations,2020-04-04 17:37:46,2020-04-09 12:53:05,Mobile App,,,,False,,False,5308 Nolensville Pike,NASHVILLE,27.0,37211,36.05348238529145,-86.71479157764246,"(36.05348238529145, -86.71479157764247)",4,4,4 days 19:15:19
1328,339343,Closed,COVID-19,COVID-19 Violations,COVID-19 Violations,2020-04-04 16:37:17,2020-04-09 12:48:44,Mobile App,,,,False,,False,2109 McGavock Pike,NASHVILLE,7.0,37216,36.213790839863755,-86.71120215003735,"(36.213790839863755, -86.71120215003735)",4,4,4 days 20:11:27
1329,339381,Closed,COVID-19,COVID-19 Violations,COVID-19 Violations,2020-04-04 18:31:49,2020-04-09 13:10:52,hubNashville Community,,,,False,,False,3150 McGavock Pk,NASHVILLE,15.0,37214,36.18528636161637,-86.67980969325409,"(36.18528636161637, -86.67980969325409)",4,4,4 days 18:39:03
1330,339478,Closed,COVID-19,COVID-19 Violations,COVID-19 Violations,2020-04-04 23:53:31,2020-04-09 16:57:11,hubNashville Community,,,,False,,False,1325 Quail Valley Rd,NASHVILLE,13.0,37214,36.136302,-86.637794,"(36.136302, -86.637794)",4,4,4 days 17:03:40
1331,339631,Closed,COVID-19,COVID-19 Violations,COVID-19 Violations,2020-04-05 18:46:38,2020-04-10 16:10:32,Mobile App,,,,False,,False,315 Martingale Dr,OLD HICKORY,11.0,37138,36.25690813305145,-86.65798031414154,"(36.256908133051446, -86.65798031414155)",5,4,4 days 21:23:54
1359,347297,Closed,COVID-19,COVID-19 Violations,COVID-19 Violations,2020-04-16 17:42:07,2020-04-21 13:53:17,hubNashville Community,,,,False,,False,454 Moss Trail,GOODLETTSVILLE,10.0,37072,36.31073801166981,-86.70649015,"(36.31073801166981, -86.70649015)",16,4,4 days 20:11:10
1379,347237,Closed,COVID-19,COVID-19 Violations,COVID-19 Violations,2020-04-16 16:50:16,2020-04-20 15:29:53,Phone,,,,False,,False,1718 Patterson St,NASHVILLE,21.0,37203,36.1575795,-86.79837640000002,"(36.1575795, -86.79837640000001)",16,4,3 days 22:39:37
1401,363478,Closed,COVID-19,COVID-19 Violations,COVID-19 Violations,2020-05-09 23:36:48,2020-05-11 15:13:37,Mobile App,,,,False,,False,992 Davidson Dr #99,NASHVILLE,22.0,37209,36.127890812846964,-86.90394792705774,"(36.12789081284696, -86.90394792705774)",9,5,1 days 15:36:49
1402,339585,Closed,COVID-19,COVID-19 Violations,COVID-19 Violations,2020-04-05 16:22:44,2020-04-13 15:52:03,Mobile App,,,,False,,False,854 Preston Rd,ANTIOCH,32.0,37013,36.02759551038736,-86.66273975241032,"(36.02759551038735, -86.66273975241032)",5,4,7 days 23:29:19
1403,339503,Closed,COVID-19,COVID-19 Violations,COVID-19 Violations,2020-04-05 01:26:55,2020-04-13 15:23:18,hubNashville Community,,,,False,,False,3904 W Valley Dr,NASHVILLE,30.0,37211,36.06948971156714,-86.70062915000003,"(36.06948971156714, -86.70062915000001)",5,4,8 days 13:56:23
1405,339418,Closed,COVID-19,COVID-19 Violations,COVID-19 Violations,2020-04-04 20:00:50,2020-04-08 19:38:17,hubNashville Community,,,,False,,False,401 Fesslers Ln,NASHVILLE,19.0,37210,36.148987700000006,-86.74364109999998,"(36.14898770000001, -86.74364109999999)",4,4,3 days 23:37:27
1406,339275,Closed,COVID-19,COVID-19 Violations,COVID-19 Violations,2020-04-04 12:20:04,2020-04-08 17:58:20,hubNashville Community,,,,False,,False,500 Duke Dr,,,,36.11869661158807,-86.40997180674589,"(36.11869661158807, -86.40997180674589)",4,4,4 days 05:38:16
1407,339485,Closed,COVID-19,COVID-19 Violations,COVID-19 Violations,2020-04-05 00:05:52,2020-04-09 19:26:03,hubNashville Community,,,,False,,False,350 Brewer Dr,NASHVILLE,27.0,37211,36.054898011560994,-86.70883380674591,"(36.05489801156099, -86.7088338067459)",5,4,4 days 19:20:11
1408,339353,Closed,COVID-19,COVID-19 Violations,COVID-19 Violations,2020-04-04 17:09:59,2020-04-09 12:53:40,hubNashville Community,,,,False,,False,4009 Hillsboro Pike,NASHVILLE,25.0,37215,36.10401012686805,-86.81546051237791,"(36.104010126868054, -86.81546051237791)",4,4,4 days 19:43:41
1452,339385,Closed,COVID-19,COVID-19 Violations,COVID-19 Violations,2020-04-04 18:34:25,2020-04-09 13:30:07,hubNashville Community,,,,False,,False,5714 Edmondson Pike,NASHVILLE,4.0,37211,36.038625200000006,-86.74242319999998,"(36.0386252, -86.74242319999999)",4,4,4 days 18:55:42
1499,354444,Closed,COVID-19,COVID-19 Violations,COVID-19 Violations,2020-04-28 20:50:32,2020-05-01 14:34:34,Mobile App,,Resident,,False,,False,225 French Landing Dr,NASHVILLE,2.0,37228,36.195307899999996,-86.79663670000001,"(36.1953079, -86.7966367)",28,4,2 days 17:44:02
1521,344303,Closed,COVID-19,COVID-19 Violations,COVID-19 Violations,2020-04-11 01:13:11,2020-04-17 13:41:05,hubNashville Community,,,,False,,False,Lebanon Pike,HERMITAGE,14.0,37076,36.1928646,-86.62381940000002,"(36.1928646, -86.62381940000002)",11,4,6 days 12:27:54
1526,363333,Closed,COVID-19,COVID-19 Violations,COVID-19 Violations,2020-05-09 11:54:23,2020-05-11 14:56:06,hubNashville Community,,,,False,,False,403 53rd Ave N,NASHVILLE,24.0,37209,36.152113586240624,-86.85081028147215,"(36.152113586240624, -86.85081028147215)",9,5,2 days 03:01:43
1529,339447,Closed,COVID-19,COVID-19 Violations,COVID-19 Violations,2020-04-04 21:41:47,2020-04-09 13:36:02,hubNashville Community,,,,False,,False,129 43rd Ave N,NASHVILLE,24.0,37209,36.139888,-86.83864249999998,"(36.139888, -86.83864249999999)",4,4,4 days 15:54:15
1552,339484,Closed,COVID-19,COVID-19 Violations,COVID-19 Violations,2020-04-05 00:02:13,2020-04-14 19:47:34,hubNashville Community,,,,False,,False,2100 Dearborn Dr,NASHVILLE,15.0,37214,36.16882870000001,-86.7025036,"(36.16882870000001, -86.7025036)",5,4,9 days 19:45:21
1553,339460,Closed,COVID-19,COVID-19 Violations,COVID-19 Violations,2020-04-04 22:39:17,2020-04-09 14:38:41,Mobile App,,,,False,,False,411 Gallatin Pike S,MADISON,9.0,37115,36.25865379999999,-86.71311419999998,"(36.25865379999999, -86.71311419999999)",4,4,4 days 15:59:24
1554,339288,Closed,COVID-19,COVID-19 Violations,COVID-19 Violations,2020-04-04 13:37:05,2020-04-09 14:36:17,hubNashville Community,,,,False,,False,1613 Buchanan St,NASHVILLE,21.0,37208,36.18003204105846,-86.81055920774423,"(36.18003204105846, -86.81055920774423)",4,4,5 days 00:59:12
1591,437839,Closed,COVID-19,COVID-19 Violations,COVID-19 Violations,2020-08-05 02:15:46,2020-08-05 17:56:30,hubNashville Community,,,,False,,False,2714 West End Ave,NASHVILLE,21.0,37203,36.1454887,-86.81234479999998,"(36.1454887, -86.81234479999999)",5,8,0 days 15:40:44
1596,437581,Closed,COVID-19,COVID-19 Violations,COVID-19 Violations,2020-08-04 20:05:46,2020-08-05 17:59:54,hubNashville Community,,,,False,,False,1520 Demonbreun St,NASHVILLE,19.0,37203,36.15334314625646,-86.7904766744306,"(36.15334314625646, -86.7904766744306)",4,8,0 days 21:54:08
1603,347660,Closed,COVID-19,COVID-19 Violations,COVID-19 Violations,2020-04-17 03:20:36,2020-04-20 15:31:29,hubNashville Community,,,,False,,False,2817 West End Ave,NASHVILLE,18.0,37203,36.1439783,-86.8129386,"(36.1439783, -86.8129386)",17,4,3 days 12:10:53
1634,437737,Closed,COVID-19,COVID-19 Violations,COVID-19 Violations,2020-08-04 21:53:29,2020-08-05 18:12:18,Phone,,,,False,,False,1215 Gallatin Pike S,MADISON,7.0,37115,36.2468,-86.72064,"(36.2468, -86.72064)",4,8,0 days 20:18:49
1637,343822,Closed,COVID-19,COVID-19 Violations,COVID-19 Violations,2020-04-10 16:29:56,2020-04-10 16:30:41,Phone,,,,False,,False,504 Pima Rd,MADISON,8.0,37115,36.266078373244206,-86.72004206798401,"(36.2660783732442, -86.72004206798401)",10,4,0 days 00:00:45
1651,344356,Closed,COVID-19,COVID-19 Violations,COVID-19 Violations,2020-04-11 02:58:04,2020-04-14 16:36:57,hubNashville Community,,,,False,,False,512 Battery Dr,NASHVILLE,34.0,37220,36.08816384152114,-86.7977801085983,"(36.08816384152114, -86.79778010859832)",11,4,3 days 13:38:53
1657,416182,Closed,COVID-19,COVID-19 Violations,COVID-19 Violations,2020-07-14 18:58:41,2020-07-15 17:15:00,hubNashville Community,,,,False,,False,1301 Bell Rd,ANTIOCH,31.0,37013,36.0463665,-86.6747213,"(36.0463665, -86.6747213)",14,7,0 days 22:16:19
1667,416346,Closed,COVID-19,COVID-19 Violations,COVID-19 Violations,2020-07-14 20:22:46,2020-07-15 16:58:28,hubNashville Community,,,,False,,False,2200 Gallatin Pike N,MADISON,10.0,37115,36.30522556166749,-86.68911270674592,"(36.305225561667484, -86.6891127067459)",14,7,0 days 20:35:42
1708,437787,Closed,COVID-19,COVID-19 Violations,COVID-19 Violations,2020-08-04 23:31:56,2020-08-05 17:51:05,hubNashville Community,,,,False,,False,21 Fern Ave,NASHVILLE,5.0,37207,36.1956848,-86.774647,"(36.1956848, -86.774647)",4,8,0 days 18:19:09
1715,437580,Closed,COVID-19,COVID-19 Violations,COVID-19 Violations,2020-08-04 20:05:44,2020-08-05 18:11:37,Phone,,,,False,,False,5301 Harding Pike,NASHVILLE,23.0,37205,36.10117,-86.8701,"(36.10117, -86.8701)",4,8,0 days 22:05:53
1725,339777,Closed,COVID-19,COVID-19 Violations,COVID-19 Violations,2020-04-06 01:22:09,2020-04-10 16:59:19,Mobile App,,,,False,,False,320 Walton Ln,MADISON,8.0,37115,36.240098100000004,-86.73475719999998,"(36.2400981, -86.73475719999999)",6,4,4 days 15:37:10
1726,339471,Closed,COVID-19,COVID-19 Violations,COVID-19 Violations,2020-04-04 23:41:09,2020-04-10 18:20:54,Mobile App,,,,False,,False,6955 Charlotte Pike,NASHVILLE,22.0,37209,36.12925728229504,-86.90354961901903,"(36.12925728229504, -86.90354961901903)",4,4,5 days 18:39:45
1748,339683,Closed,COVID-19,COVID-19 Violations,COVID-19 Violations,2020-04-05 21:27:49,2020-04-13 16:05:21,hubNashville Community,,,,False,,False,225 Middleton St,NASHVILLE,19.0,37210,36.15733945078793,-86.76617559995495,"(36.15733945078793, -86.76617559995495)",5,4,7 days 18:37:32
1750,408899,Closed,COVID-19,COVID-19 Violations,COVID-19 Violations,2020-07-06 17:42:32,2020-07-07 17:20:40,hubNashville Community,,,,False,,False,1811 Church St,NASHVILLE,21.0,37203,36.154217561603176,-86.79823549325407,"(36.15421756160318, -86.79823549325408)",6,7,0 days 23:38:08
1753,339441,Closed,COVID-19,COVID-19 Violations,COVID-19 Violations,2020-04-04 21:24:32,2020-04-09 13:41:26,hubNashville Community,,,,False,,False,210 Anne Dallas Dudley Blvd,NASHVILLE,19.0,37219,36.163000000000004,-86.78200000000001,"(36.163, -86.782)",4,4,4 days 16:16:54
1754,339500,Closed,COVID-19,COVID-19 Violations,COVID-19 Violations,2020-04-05 01:16:51,2020-04-10 16:58:38,hubNashville Community,,,,False,,False,1719 6th Ave N,NASHVILLE,19.0,37208,36.182618,-86.794914,"(36.182618, -86.794914)",5,4,5 days 15:41:47
1773,347119,Closed,COVID-19,COVID-19 Violations,COVID-19 Violations,2020-04-16 15:23:11,2020-04-20 15:30:05,Phone,,,,False,,False,814 Church St,NASHVILLE,19.0,37203,36.161637000000006,-86.7844628,"(36.16163700000001, -86.7844628)",16,4,4 days 00:06:54
1774,347519,Closed,COVID-19,COVID-19 Violations,COVID-19 Violations,2020-04-16 20:59:03,2020-04-20 16:36:24,Phone,,,,False,,False,1806 Jefferson St,NASHVILLE,21.0,37208,36.16967,-86.80745999999999,"(36.16967, -86.80746)",16,4,3 days 19:37:21
1775,347620,Closed,COVID-19,COVID-19 Violations,COVID-19 Violations,2020-04-16 23:34:33,2020-04-20 15:47:32,hubNashville Community,,,,False,,False,520 McMurray Dr,NASHVILLE,27.0,37211,36.05683030860536,-86.72359016864776,"(36.056830308605356, -86.72359016864776)",16,4,3 days 16:12:59
1776,339499,Closed,COVID-19,COVID-19 Violations,COVID-19 Violations,2020-04-05 01:13:07,2020-04-13 16:17:58,hubNashville Community,,,,False,,False,1804 Natchez Trace,NASHVILLE,18.0,37212,36.13682454225829,-86.81083136745913,"(36.13682454225829, -86.81083136745912)",5,4,8 days 15:04:51
1798,438147,Closed,COVID-19,COVID-19 Violations,COVID-19 Violations,2020-08-05 15:22:19,2020-08-06 19:38:38,hubNashville Community,,,,False,,False,908 Main St,NASHVILLE,6.0,37206,36.1758602,-86.75628979999998,"(36.1758602, -86.75628979999999)",5,8,1 days 04:16:19
1804,343859,Closed,COVID-19,COVID-19 Violations,COVID-19 Violations,2020-04-10 16:58:23,2020-04-15 18:03:36,hubNashville Community,,,,False,,False,2807 Nolensville Pike,NASHVILLE,16.0,37211,36.1120735,-86.7461569,"(36.1120735, -86.7461569)",10,4,5 days 01:05:13
1854,370733,Closed,COVID-19,COVID-19 Violations,COVID-19 Violations,2020-05-18 16:22:15,2020-05-19 18:27:42,Phone,,,,False,,False,936 Richards Rd,ANTIOCH,28.0,37013,36.068000000000005,-86.6813,"(36.068, -86.6813)",18,5,1 days 02:05:27
1907,339661,Closed,COVID-19,COVID-19 Violations,COVID-19 Violations,2020-04-05 20:05:04,2020-04-10 18:18:55,hubNashville Community,,,,False,,False,542 Foundry Dr,NASHVILLE,20.0,37209,36.158064111604794,-86.87991209325409,"(36.158064111604794, -86.87991209325409)",5,4,4 days 22:13:51
1954,394477,Closed,COVID-19,COVID-19 Violations,COVID-19 Violations,2020-06-17 17:31:12,2020-06-18 16:17:16,hubNashville Community,,,,False,,False,1524 Gallatin Ave,NASHVILLE,5.0,37206,36.1942946,-86.74391609999998,"(36.1942946, -86.74391609999999)",17,6,0 days 22:46:04
1973,339274,Closed,COVID-19,COVID-19 Violations,COVID-19 Violations,2020-04-04 12:06:10,2020-04-08 17:57:05,hubNashville Community,,,,False,,False,5828 Nolensville Pike,,,37211,36.04146206155529,-86.71235509325408,"(36.041462061555286, -86.71235509325408)",4,4,4 days 05:50:55
2006,339375,Closed,COVID-19,COVID-19 Violations,COVID-19 Violations,2020-04-04 18:15:25,2020-04-09 13:08:24,Mobile App,,,,False,,False,Main St,NASHVILLE,6.0,37206,36.173801899999994,-86.76280380000001,"(36.1738019, -86.76280380000001)",4,4,4 days 18:52:59
2024,339319,Closed,COVID-19,COVID-19 Violations,COVID-19 Violations,2020-04-04 15:33:12,2020-04-08 16:15:58,hubNashville Community,,,,False,,False,3050 Green Hill Dr,,,,37.27095751208484,-80.11073700674591,"(37.27095751208484, -80.11073700674591)",4,4,4 days 00:42:46
2027,339625,Closed,COVID-19,COVID-19 Violations,COVID-19 Violations,2020-04-05 18:34:59,2020-04-10 17:28:17,hubNashville Community,,,,False,,False,711 Gallatin Ave,NASHVILLE,6.0,37206,36.18430200000001,-86.7470445,"(36.18430200000001, -86.7470445)",5,4,4 days 22:53:18
2038,407540,Closed,COVID-19,COVID-19 Violations,COVID-19 Violations,2020-07-04 13:07:22,2020-07-06 18:13:37,hubNashville Community,,,,False,,False,1775 Gallatin Pike N,MADISON,10.0,37115,36.2961339,-86.699788,"(36.2961339, -86.699788)",4,7,2 days 05:06:15
2051,339691,Closed,COVID-19,COVID-19 Violations,COVID-19 Violations,2020-04-05 21:57:13,2020-04-10 18:56:40,hubNashville Community,,,,False,,False,911 Center Point Rd,,,37075,36.310200099999996,-86.66701090000001,"(36.3102001, -86.6670109)",5,4,4 days 20:59:27
2053,339802,Closed,COVID-19,COVID-19 Violations,COVID-19 Violations,2020-04-06 03:52:59,2020-04-10 17:04:46,hubNashville Community,,,,False,,False,600 Broadway,NASHVILLE,19.0,37203,36.159853399999996,-86.77999940000001,"(36.1598534, -86.7799994)",6,4,4 days 13:11:47
2068,339666,Closed,COVID-19,COVID-19 Violations,COVID-19 Violations,2020-04-05 20:24:25,2020-04-13 15:46:31,hubNashville Community,,,,False,,False,300 Bakertown Rd,ANTIOCH,28.0,37013,36.07295739186557,-86.68745799224878,"(36.072957391865565, -86.68745799224878)",5,4,7 days 19:22:06
2076,339458,Closed,COVID-19,COVID-19 Violations,COVID-19 Violations,2020-04-04 22:38:31,2020-04-09 14:40:10,hubNashville Community,,,,False,,False,1 Club Dr,NASHVILLE,34.0,37215,36.049896200000006,-86.8229293,"(36.0498962, -86.8229293)",4,4,4 days 16:01:39
2106,339622,Closed,COVID-19,COVID-19 Violations,COVID-19 Violations,2020-04-05 18:21:34,2020-04-10 18:18:36,hubNashville Community,,,,False,,False,7004 Charlotte Pike,NASHVILLE,35.0,37209,36.12923901197388,-86.90488901915859,"(36.12923901197388, -86.90488901915859)",5,4,4 days 23:57:02
2126,354593,Closed,COVID-19,COVID-19 Violations,COVID-19 Violations,2020-04-28 23:53:16,2020-05-01 14:53:45,hubNashville Community,,,,False,,False,347 Clofton Dr,NASHVILLE,35.0,37221,36.0641353,-86.93917549999998,"(36.0641353, -86.93917549999999)",28,4,2 days 15:00:29
2139,417390,Closed,COVID-19,COVID-19 Violations,COVID-19 Violations,2020-07-15 19:57:42,2020-07-16 15:21:46,hubNashville Community,,,,False,,False,1201 Dickerson Pike,NASHVILLE,5.0,37207,36.1920303,-86.7723503,"(36.1920303, -86.7723503)",15,7,0 days 19:24:04
2145,339286,Closed,COVID-19,COVID-19 Violations,COVID-19 Violations,2020-04-04 13:26:10,2020-04-09 14:34:56,hubNashville Community,,,,False,,False,5400 Charlotte Ave,,,37209,36.15238861160236,-86.85345149999998,"(36.15238861160236, -86.85345149999999)",4,4,5 days 01:08:46
2167,407584,Closed,COVID-19,COVID-19 Violations,COVID-19 Violations,2020-07-04 15:21:22,2020-07-06 18:28:50,hubNashville Community,,,,False,,False,,NASHVILLE,19.0,37203,36.15658331160417,-86.78745279999998,"(36.15658331160417, -86.78745279999998)",4,7,2 days 03:07:28
2189,347485,Closed,COVID-19,COVID-19 Violations,COVID-19 Violations,2020-04-16 20:28:38,2020-04-20 15:46:42,Phone,,,,False,,False,4898 Nolensville Pike,NASHVILLE,30.0,37211,36.06344,-86.71646,"(36.06344, -86.71646)",16,4,3 days 19:18:04
2214,411488,Closed,COVID-19,COVID-19 Violations,COVID-19 Violations,2020-07-09 00:28:25,2020-07-09 17:18:39,hubNashville Community,,,,False,,False,3308 Gallatin Pike,NASHVILLE,7.0,37216,36.209493061626674,-86.73370095000001,"(36.209493061626674, -86.73370095000001)",9,7,0 days 16:50:14
2225,339486,Closed,COVID-19,COVID-19 Violations,COVID-19 Violations,2020-04-05 00:09:33,2020-04-14 15:36:44,hubNashville Community,,,,False,,False,210 Anne Dallas Dudley Blvd,NASHVILLE,19.0,37219,36.163000000000004,-86.78200000000001,"(36.163, -86.782)",5,4,9 days 15:27:11
2231,339429,Closed,COVID-19,COVID-19 Violations,COVID-19 Violations,2020-04-04 20:50:01,2020-04-09 14:16:14,hubNashville Community,,,,False,,False,5520 Nolensville Pike,NASHVILLE,27.0,37211,36.04823760000001,-86.71039300000001,"(36.04823760000001, -86.710393)",4,4,4 days 17:26:13
2241,380605,Closed,COVID-19,COVID-19 Violations,COVID-19 Violations,2020-05-31 20:29:20,2020-06-01 18:08:11,hubNashville Community,,,,False,,False,1214 Church St,NASHVILLE,19.0,37246,36.158905600000004,-86.7904126,"(36.1589056, -86.7904126)",31,5,0 days 21:38:51
2255,339495,Closed,COVID-19,COVID-19 Violations,COVID-19 Violations,2020-04-05 00:46:11,2020-04-09 17:09:28,hubNashville Community,,,,False,,False,215 Middleton St,NASHVILLE,19.0,37210,36.15745901160452,-86.766184,"(36.157459011604516, -86.766184)",5,4,4 days 16:23:17
2269,347259,Closed,COVID-19,COVID-19 Violations,COVID-19 Violations,2020-04-16 17:09:37,2020-04-20 16:36:12,hubNashville Community,,,,False,,False,1329 6th Ave N,NASHVILLE,19.0,37208,36.177551,-86.79150299999998,"(36.177551, -86.79150299999999)",16,4,3 days 23:26:35
2276,339610,Closed,COVID-19,COVID-19 Violations,COVID-19 Violations,2020-04-05 17:37:54,2020-04-14 19:16:21,hubNashville Community,,,,False,,False,210 Anne Dallas Dudley Blvd,NASHVILLE,19.0,37219,36.163035,-86.782032,"(36.163035, -86.782032)",5,4,9 days 01:38:27
2282,339379,Closed,COVID-19,COVID-19 Violations,COVID-19 Violations,2020-04-04 18:28:33,2020-04-09 13:08:57,hubNashville Community,,,,False,,False,3460 Dickerson Pike,NASHVILLE,3.0,37207,36.2464588,-86.76174420000001,"(36.2464588, -86.7617442)",4,4,4 days 18:40:24
2284,339805,Closed,COVID-19,COVID-19 Violations,COVID-19 Violations,2020-04-06 05:02:31,2020-04-10 18:24:57,hubNashville Community,,,,False,,False,5010 Old Hickory Blvd,HERMITAGE,11.0,37076,36.19410519999999,-86.61483229999997,"(36.19410519999999, -86.61483229999999)",6,4,4 days 13:22:26
2295,411140,Closed,COVID-19,COVID-19 Violations,COVID-19 Violations,2020-07-08 18:45:49,2020-07-09 17:14:35,hubNashville Community,,,,False,,False,424 Church St,NASHVILLE,19.0,37219,36.16354119999999,-86.7799158,"(36.16354119999999, -86.7799158)",8,7,0 days 22:28:46
2330,339669,Closed,COVID-19,COVID-19 Violations,COVID-19 Violations,2020-04-05 20:43:09,2020-04-13 16:12:37,hubNashville Community,,,,False,,False,,NASHVILLE,7.0,37216,36.218627307786015,-86.71694559349274,"(36.218627307786015, -86.71694559349274)",5,4,7 days 19:29:28
2350,350641,Closed,COVID-19,COVID-19 Violations,COVID-19 Violations,2020-04-22 16:41:26,2020-04-24 15:28:06,Phone,,,,False,,False,1037 9th Ave N,NASHVILLE,19.0,37208,36.17259,-86.79261,"(36.17259, -86.79261)",22,4,1 days 22:46:40
2405,339530,Closed,COVID-19,COVID-19 Violations,COVID-19 Violations,2020-04-05 06:07:08,2020-04-13 13:33:20,Mobile App,,,,False,,False,778 Rivergate Pkwy,GOODLETTSVILLE,10.0,37072,36.303805100000005,-86.7019816,"(36.3038051, -86.7019816)",5,4,8 days 07:26:12
2409,347518,Closed,COVID-19,COVID-19 Violations,COVID-19 Violations,2020-04-16 20:58:06,2020-04-21 13:46:22,hubNashville Community,,,,False,,False,600 Charlotte Ave,NASHVILLE,19.0,37219,36.1658916,-86.78428609999999,"(36.1658916, -86.7842861)",16,4,4 days 16:48:16
2435,489485,Closed,COVID-19,COVID-19 Violations,COVID-19 Violations,2020-10-27 17:18:49,2020-10-28 14:42:46,Phone,,,,False,,False,2806 Azalea Pl,NASHVILLE,17.0,37204,36.11602,-86.7674,"(36.11602, -86.7674)",27,10,0 days 21:23:57
2438,339632,Closed,COVID-19,COVID-19 Violations,COVID-19 Violations,2020-04-05 18:50:44,2020-04-14 15:38:09,hubNashville Community,,,,False,,False,Unnamed Road,NASHVILLE,19.0,37219,36.16720530833453,-86.7851570766639,"(36.16720530833453, -86.7851570766639)",5,4,8 days 20:47:25
2453,339399,Closed,COVID-19,COVID-19 Violations,COVID-19 Violations,2020-04-04 19:17:32,2020-04-08 18:29:26,hubNashville Community,,,,False,,False,315 14th Ave N,NASHVILLE,19.0,37203,36.15988091160555,-86.79363079580997,"(36.15988091160555, -86.79363079580997)",4,4,3 days 23:11:54
2477,339305,Closed,COVID-19,COVID-19 Violations,COVID-19 Violations,2020-04-04 14:48:26,2020-04-09 12:34:28,hubNashville Community,,,,False,,False,335 Harding Pl,NASHVILLE,28.0,37211,36.086364,-86.69558249999999,"(36.086364, -86.69558249999999)",4,4,4 days 21:46:02
2511,339732,Closed,COVID-19,COVID-19 Violations,COVID-19 Violations,2020-04-05 23:06:58,2020-04-13 16:02:51,hubNashville Community,,,,False,,False,613 James Ave,NASHVILLE,20.0,37209,36.15925,-86.876717,"(36.15925, -86.876717)",5,4,7 days 16:55:53
2514,438201,Closed,COVID-19,COVID-19 Violations,COVID-19 Violations,2020-08-05 15:49:49,2020-08-06 19:51:08,hubNashville Community,,,,False,,False,1319 Foster Ave,NASHVILLE,17.0,37210,36.13035240000001,-86.7423574,"(36.13035240000001, -86.7423574)",5,8,1 days 04:01:19
2516,339468,Closed,COVID-19,COVID-19 Violations,COVID-19 Violations,2020-04-04 23:25:47,2020-04-09 15:20:42,Mobile App,,,,False,,False,1325 Quail Valley Rd,NASHVILLE,13.0,37214,36.136302,-86.637794,"(36.136302, -86.637794)",4,4,4 days 15:54:55
2535,363423,Closed,COVID-19,COVID-19 Violations,COVID-19 Violations,2020-05-09 17:48:23,2020-05-13 14:04:58,hubNashville Community,,,,False,,False,UBS Tower,NASHVILLE,19.0,37201,36.16576120000001,-86.7794184,"(36.16576120000001, -86.7794184)",9,5,3 days 20:16:35
2583,354572,Closed,COVID-19,COVID-19 Violations,COVID-19 Violations,2020-04-28 23:01:55,2020-05-01 14:25:57,hubNashville Community,,,,False,,False,1208 Dodson St,OLD HICKORY,11.0,37138,36.2577906,-86.64865309999998,"(36.2577906, -86.64865309999999)",28,4,2 days 15:24:02
2592,353868,Closed,COVID-19,COVID-19 Violations,COVID-19 Violations,2020-04-28 12:39:40,2020-04-28 17:41:43,hubNashville Community,,Resident,,False,,False,3171 Lebanon Pike,NASHVILLE,14.0,37214,36.1825191,-86.63717109999997,"(36.1825191, -86.63717109999999)",28,4,0 days 05:02:03
2616,339474,Closed,COVID-19,COVID-19 Violations,COVID-19 Violations,2020-04-04 23:47:12,2020-04-13 15:38:45,hubNashville Community,,,,False,,False,6740 Sunnywood Dr,NASHVILLE,31.0,37211,36.01224907386544,-86.69556076327848,"(36.01224907386544, -86.69556076327848)",4,4,8 days 15:51:33
2640,339676,Closed,COVID-19,COVID-19 Violations,COVID-19 Violations,2020-04-05 20:56:07,2020-04-13 15:50:55,hubNashville Community,,,,False,,False,5250 Hickory Hollow Pkwy,ANTIOCH,32.0,37013,36.05135519179967,-86.65615909325409,"(36.05135519179967, -86.65615909325409)",5,4,7 days 18:54:48
2666,339279,Closed,COVID-19,COVID-19 Violations,COVID-19 Violations,2020-04-04 12:52:37,2020-04-08 18:28:34,hubNashville Community,,,,False,,False,312 US-70,,,,36.16138746160622,-86.77679150674591,"(36.16138746160622, -86.77679150674591)",4,4,4 days 05:35:57
2667,339412,Closed,COVID-19,COVID-19 Violations,COVID-19 Violations,2020-04-04 19:46:48,2020-04-08 19:35:31,hubNashville Community,,,,False,,False,6216 Robin Hill Rd,NASHVILLE,23.0,37205,36.107167,-86.8830868,"(36.107167, -86.8830868)",4,4,3 days 23:48:43
2719,339453,Closed,COVID-19,COVID-19 Violations,COVID-19 Violations,2020-04-04 22:13:21,2020-04-09 14:51:08,hubNashville Community,,,,False,,False,120 Powell Dr,NASHVILLE,16.0,37204,36.3022006,-86.625275,"(36.3022006, -86.625275)",4,4,4 days 16:37:47
2721,347383,Closed,COVID-19,COVID-19 Violations,COVID-19 Violations,2020-04-16 18:58:33,2020-04-20 15:29:40,hubNashville Community,,,,False,,False,1710 Patterson St,NASHVILLE,21.0,37203,36.157953899999995,-86.798361,"(36.1579539, -86.798361)",16,4,3 days 20:31:07
2763,347663,Closed,COVID-19,COVID-19 Violations,COVID-19 Violations,2020-04-17 04:18:26,2020-04-20 15:33:41,Mobile App,,,,False,,False,1120 4th Ave N,NASHVILLE,19.0,37208,36.1758211,-86.7863666,"(36.1758211, -86.7863666)",17,4,3 days 11:15:15
2767,371289,Closed,COVID-19,COVID-19 Violations,COVID-19 Violations,2020-05-18 23:03:00,2020-05-19 17:19:41,Mobile App,,,,False,,False,3900 Hillsboro Pike,NASHVILLE,25.0,37215,36.10573513087411,-86.81343510746956,"(36.10573513087411, -86.81343510746956)",18,5,0 days 18:16:41
2773,457223,Closed,COVID-19,COVID-19 Violations,COVID-19 Violations,2020-09-02 21:00:09,2020-09-03 13:28:18,Phone,,,,False,,False,3409 Gallatin Pike,NASHVILLE,8.0,37216,36.21135,-86.73357,"(36.21135, -86.73357)",2,9,0 days 16:28:09
2811,366570,Closed,COVID-19,COVID-19 Violations,COVID-19 Violations,2020-05-13 15:41:37,2020-05-14 13:43:20,Phone,,,,False,,False,1 Terminal Dr,NASHVILLE,13.0,37214,36.131489200000004,-86.66923369999998,"(36.1314892, -86.66923369999999)",13,5,0 days 22:01:43
2815,347245,Closed,COVID-19,COVID-19 Violations,COVID-19 Violations,2020-04-16 16:59:19,2020-04-20 15:36:19,Phone,,,,False,,False,60 Lester Ave,NASHVILLE,17.0,37210,36.1423594,-86.75229970000002,"(36.1423594, -86.75229970000001)",16,4,3 days 22:37:00
2845,339293,Closed,COVID-19,COVID-19 Violations,COVID-19 Violations,2020-04-04 13:59:36,2020-04-09 13:32:30,Mobile App,,,,False,,False,5400 Charlotte Ave,NASHVILLE,24.0,37209,36.15129072941508,-86.85357015010443,"(36.15129072941508, -86.85357015010442)",4,4,4 days 23:32:54
2863,339514,Closed,COVID-19,COVID-19 Violations,COVID-19 Violations,2020-04-05 02:51:30,2020-04-09 17:08:16,hubNashville Community,,,,False,,False,210 Anne Dallas Dudley Blvd,NASHVILLE,19.0,37219,36.163000000000004,-86.78200000000001,"(36.163, -86.782)",5,4,4 days 14:16:46
2893,339269,Closed,COVID-19,COVID-19 Violations,COVID-19 Violations,2020-04-04 10:20:40,2020-04-08 17:24:50,hubNashville Community,,,,False,,False,1129 Palmer Ave,MADISON,9.0,37115,36.27946038219164,-86.7040345720467,"(36.27946038219163, -86.70403457204671)",4,4,4 days 07:04:10
2894,339448,Closed,COVID-19,COVID-19 Violations,COVID-19 Violations,2020-04-04 21:46:05,2020-04-09 13:34:20,Mobile App,,,,False,,False,308 Kern Dr,NASHVILLE,26.0,37211,36.08123065523307,-86.72217009589077,"(36.08123065523307, -86.72217009589076)",4,4,4 days 15:48:15
2921,339789,Closed,COVID-19,COVID-19 Violations,COVID-19 Violations,2020-04-06 01:48:05,2020-04-16 15:18:22,hubNashville Community,,,,False,,False,1912 16th Ave N,NASHVILLE,21.0,37208,36.182052500000005,-86.8104582,"(36.1820525, -86.8104582)",6,4,10 days 13:30:17
2940,339351,Closed,COVID-19,COVID-19 Violations,COVID-19 Violations,2020-04-04 17:07:01,2020-04-09 12:46:14,hubNashville Community,,,,False,,False,424 Humphreys St,NASHVILLE,17.0,37203,36.142002000000005,-86.76639449999999,"(36.142002, -86.7663945)",4,4,4 days 19:39:13
2942,339357,Closed,COVID-19,COVID-19 Violations,COVID-19 Violations,2020-04-04 17:27:25,2020-04-09 12:55:16,hubNashville Community,,,,False,,False,1503 Buchanan St,NASHVILLE,21.0,37208,36.180028196203054,-86.80891124923541,"(36.180028196203054, -86.8089112492354)",4,4,4 days 19:27:51
2959,347672,Closed,COVID-19,COVID-19 Violations,COVID-19 Violations,2020-04-17 06:49:52,2020-04-21 13:58:12,hubNashville Community,,,,False,,False,White Bridge Rd,NASHVILLE,24.0,37205,36.1303409,-86.8560315,"(36.1303409, -86.8560315)",17,4,4 days 07:08:20
2965,343909,Closed,COVID-19,COVID-19 Violations,COVID-19 Violations,2020-04-10 17:32:25,2020-04-15 18:06:14,hubNashville Community,,,,False,,False,785 Bell Rd,ANTIOCH,32.0,37013,36.050339163325575,-86.64910992793638,"(36.05033916332557, -86.64910992793638)",10,4,5 days 00:33:49
3085,339724,Closed,COVID-19,COVID-19 Violations,COVID-19 Violations,2020-04-05 22:28:32,2020-04-10 18:13:08,hubNashville Community,,,,False,,False,2624 Brick Church Pike,NASHVILLE,2.0,37207,36.21671449999999,-86.7810933,"(36.21671449999999, -86.7810933)",5,4,4 days 19:44:36
3114,339774,Closed,COVID-19,COVID-19 Violations,COVID-19 Violations,2020-04-06 00:58:26,2020-04-10 18:20:39,hubNashville Community,,,,False,,False,6535 Premier Dr,NASHVILLE,20.0,37209,36.143406899999995,-86.8793173,"(36.1434069, -86.8793173)",6,4,4 days 17:22:13
3161,339643,Closed,COVID-19,COVID-19 Violations,COVID-19 Violations,2020-04-05 19:19:16,2020-04-14 15:45:59,hubNashville Community,,,,False,,False,7087 Hwy 70 S,NASHVILLE,34.0,37221,36.07369861156895,-86.9198277,"(36.07369861156895, -86.9198277)",5,4,8 days 20:26:43
3181,407555,Closed,COVID-19,COVID-19 Violations,COVID-19 Violations,2020-07-04 13:39:36,2020-07-06 17:31:16,hubNashville Community,,,,False,,False,2037 Antioch Pike,ANTIOCH,28.0,37013,36.06872991156683,-86.68381040674593,"(36.06872991156683, -86.68381040674592)",4,7,2 days 03:51:40
3182,344180,Closed,COVID-19,COVID-19 Violations,COVID-19 Violations,2020-04-10 21:37:36,2020-04-15 18:07:46,Phone,,,,False,,False,1530 Antioch Pike,ANTIOCH,28.0,37013,36.0785,-86.68271,"(36.0785, -86.68271)",10,4,4 days 20:30:10
3187,339469,Closed,COVID-19,COVID-19 Violations,COVID-19 Violations,2020-04-04 23:33:25,2020-04-09 17:00:41,Mobile App,,,,False,,False,7017 US-70,NASHVILLE,22.0,37209,36.128942075855996,-86.90382186323404,"(36.128942075856, -86.90382186323404)",4,4,4 days 17:27:16
3189,339621,Closed,COVID-19,COVID-19 Violations,COVID-19 Violations,2020-04-05 18:14:50,2020-04-10 17:29:42,hubNashville Community,,,,False,,False,3810 Whites Creek Pike,NASHVILLE,3.0,37207,36.24731488224988,-86.82523866189568,"(36.24731488224988, -86.82523866189567)",5,4,4 days 23:14:52
3211,339492,Closed,COVID-19,COVID-19 Violations,COVID-19 Violations,2020-04-05 00:40:36,2020-04-09 16:58:27,hubNashville Community,,,,False,,False,4500 Murphy Rd,NASHVILLE,24.0,37209,36.14116840000001,-86.8405939,"(36.14116840000001, -86.8405939)",5,4,4 days 16:17:51
3212,339599,Closed,COVID-19,COVID-19 Violations,COVID-19 Violations,2020-04-05 17:15:12,2020-04-10 16:32:45,hubNashville Community,,,,False,,False,900 Hospital Dr,MADISON,9.0,37115,36.25425922119001,-86.68985199347912,"(36.25425922119001, -86.68985199347912)",5,4,4 days 23:17:33
3213,339528,Closed,COVID-19,COVID-19 Violations,COVID-19 Violations,2020-04-05 05:58:00,2020-04-10 18:12:31,hubNashville Community,,,,False,,False,115 Elmhurst Ave,NASHVILLE,5.0,37207,36.195829811620854,-86.77368990674589,"(36.19582981162085, -86.77368990674589)",5,4,5 days 12:14:31
3214,344156,Closed,COVID-19,COVID-19 Violations,COVID-19 Violations,2020-04-10 21:18:19,2020-04-15 15:14:00,hubNashville Community,,,,False,,False,3815 Logistics Way,ANTIOCH,33.0,37013,36.027361,-86.6075,"(36.027361, -86.6075)",10,4,4 days 17:55:41
3240,347511,Closed,COVID-19,COVID-19 Violations,COVID-19 Violations,2020-04-16 20:50:45,2020-04-21 13:49:35,Phone,,,,False,,False,2610 Lebanon Pike,NASHVILLE,15.0,37214,36.17015,-86.67416,"(36.17015, -86.67416)",16,4,4 days 16:58:50
3279,347635,Closed,COVID-19,COVID-19 Violations,COVID-19 Violations,2020-04-17 00:25:18,2020-04-20 15:31:09,hubNashville Community,,,,False,,False,305 S Shore Dr,ANTIOCH,33.0,37013,36.0548765,-86.58393559999998,"(36.0548765, -86.58393559999999)",17,4,3 days 15:05:51
3385,343675,Closed,COVID-19,COVID-19 Violations,COVID-19 Violations,2020-04-10 14:39:06,2020-04-17 14:08:04,Phone,,,,False,,False,7201 Cockrill Bend Blvd,NASHVILLE,20.0,37209,36.16817,-86.88771,"(36.16817, -86.88771)",10,4,6 days 23:28:58
3389,339587,Closed,COVID-19,COVID-19 Violations,COVID-19 Violations,2020-04-05 16:26:24,2020-04-13 15:07:12,Mobile App,,,,False,,False,313A Foxglove Dr,NASHVILLE,26.0,37211,36.08464298048629,-86.72057685252761,"(36.08464298048629, -86.72057685252763)",5,4,7 days 22:40:48
3390,339682,Closed,COVID-19,COVID-19 Violations,COVID-19 Violations,2020-04-05 21:21:18,2020-04-14 15:33:33,hubNashville Community,,,,False,,False,210 Anne Dallas Dudley Blvd,NASHVILLE,19.0,37219,36.163000000000004,-86.78200000000001,"(36.163, -86.782)",5,4,8 days 18:12:15
3399,339733,Closed,COVID-19,COVID-19 Violations,COVID-19 Violations,2020-04-05 23:07:19,2020-04-13 15:59:14,hubNashville Community,,,,False,,False,611 James Ave,NASHVILLE,20.0,37209,36.159061441526546,-86.87664970145056,"(36.15906144152655, -86.87664970145056)",5,4,7 days 16:51:55
3411,339338,Closed,COVID-19,COVID-19 Violations,COVID-19 Violations,2020-04-04 16:27:08,2020-04-08 16:43:52,hubNashville Community,,,,False,,False,1904 Old Hickory Blvd,OLD HICKORY,11.0,37138,36.2484,-86.64574499999998,"(36.2484, -86.64574499999999)",4,4,4 days 00:16:44
3413,339627,Closed,COVID-19,COVID-19 Violations,COVID-19 Violations,2020-04-05 18:38:23,2020-04-10 17:12:49,hubNashville Community,,,,False,,False,2935 Sidco Dr,NASHVILLE,16.0,37204,36.107816992238384,-86.75567754157713,"(36.107816992238384, -86.75567754157713)",5,4,4 days 22:34:26
3420,344139,Closed,COVID-19,COVID-19 Violations,COVID-19 Violations,2020-04-10 21:10:02,2020-04-14 20:04:10,hubNashville Community,,,,False,,False,1500 Country Club Rd,,,,36.18437761161595,-85.47024939580999,"(36.18437761161595, -85.47024939580999)",10,4,3 days 22:54:08
3436,339433,Closed,COVID-19,COVID-19 Violations,COVID-19 Violations,2020-04-04 20:57:49,2020-04-09 14:12:34,hubNashville Community,,,,False,,False,1101 Nashboro Blvd,NASHVILLE,29.0,37217,36.0883052,-86.6421222,"(36.0883052, -86.6421222)",4,4,4 days 17:14:45
3477,339392,Closed,COVID-19,COVID-19 Violations,COVID-19 Violations,2020-04-04 18:58:46,2020-04-08 18:24:21,hubNashville Community,,,,False,,False,3740 Dickerson Pike,NASHVILLE,3.0,37207,36.26286186164938,-86.75782230674591,"(36.262861861649384, -86.75782230674591)",4,4,3 days 23:25:35
3491,339509,Closed,COVID-19,COVID-19 Violations,COVID-19 Violations,2020-04-05 02:03:01,2020-04-13 15:45:54,hubNashville Community,,,,False,,False,5023 Blue Hole Rd,ANTIOCH,28.0,37013,36.05595799946037,-86.6728541725443,"(36.05595799946037, -86.67285417254432)",5,4,8 days 13:42:53
3505,339422,Closed,COVID-19,COVID-19 Violations,COVID-19 Violations,2020-04-04 20:11:54,2020-04-08 19:39:53,Mobile App,,,,False,,False,127 International Blvd,,,37086,36.01216375629648,-86.59758316352962,"(36.012163756296474, -86.59758316352963)",4,4,3 days 23:27:59
3532,344183,Closed,COVID-19,COVID-19 Violations,COVID-19 Violations,2020-04-10 21:38:43,2020-04-15 18:07:32,Phone,,,,False,,False,601 Bakertown Rd,ANTIOCH,28.0,37013,36.07137,-86.68916999999999,"(36.07137, -86.68917)",10,4,4 days 20:28:49
3535,339536,Closed,COVID-19,COVID-19 Violations,COVID-19 Violations,2020-04-05 12:05:49,2020-04-10 19:04:01,hubNashville Community,,,,False,,False,114 Pinnacle Dr,,,37172,36.53607431499236,-86.89006241240045,"(36.536074314992355, -86.89006241240045)",5,4,5 days 06:58:12
3605,437334,Closed,COVID-19,COVID-19 Violations,COVID-19 Violations,2020-08-04 17:21:10,2020-08-05 19:46:29,Phone,,,,False,,False,Post Pl & White Bridge Rd,NASHVILLE,24.0,37205,36.1280044,-86.85196739999998,"(36.1280044, -86.85196739999999)",4,8,1 days 02:25:19
3621,437496,Closed,COVID-19,COVID-19 Violations,COVID-19 Violations,2020-08-04 19:10:17,2020-08-05 18:11:21,hubNashville Community,,,,False,,False,210 Anne Dallas Dudley Blvd,NASHVILLE,19.0,37219,36.163000000000004,-86.78200000000001,"(36.163, -86.782)",4,8,0 days 23:01:04
3677,339455,Closed,COVID-19,COVID-19 Violations,COVID-19 Violations,2020-04-04 22:21:46,2020-04-09 14:49:24,hubNashville Community,,,,False,,False,830 Kirkwood Ave,NASHVILLE,17.0,37204,36.1209676,-86.7799335,"(36.1209676, -86.7799335)",4,4,4 days 16:27:38
3678,339298,Closed,COVID-19,COVID-19 Violations,COVID-19 Violations,2020-04-04 14:12:33,2020-04-09 12:17:54,hubNashville Community,,,,False,,False,4912 Michigan Ave,NASHVILLE,20.0,37209,36.159093,-86.84745749999998,"(36.159093, -86.84745749999999)",4,4,4 days 22:05:21
3682,339662,Closed,COVID-19,COVID-19 Violations,COVID-19 Violations,2020-04-05 20:05:35,2020-04-10 16:45:22,hubNashville Community,,,,False,,False,104 Westchester Ct,MADISON,8.0,37115,36.26537640000001,-86.74498349999999,"(36.26537640000001, -86.7449835)",5,4,4 days 20:39:47
3761,339653,Closed,COVID-19,COVID-19 Violations,COVID-19 Violations,2020-04-05 19:40:48,2020-04-14 15:43:28,Mobile App,,,,False,,False,659 Harpeth Bend Dr,NASHVILLE,35.0,37221,36.06045130775925,-86.93357191979885,"(36.06045130775925, -86.93357191979885)",5,4,8 days 20:02:40
3774,339304,Closed,COVID-19,COVID-19 Violations,COVID-19 Violations,2020-04-04 14:46:08,2020-04-09 12:32:27,hubNashville Community,,,,False,,False,1043 Jefferson St,,,,36.171617,-86.796651,"(36.171617, -86.796651)",4,4,4 days 21:46:19
3775,339642,Closed,COVID-19,COVID-19 Violations,COVID-19 Violations,2020-04-05 19:18:20,2020-04-10 18:16:00,hubNashville Community,,,,False,,False,4701 Indiana Ave,NASHVILLE,20.0,37209,36.1557938,-86.84494780000001,"(36.1557938, -86.84494780000001)",5,4,4 days 22:57:40
3857,339742,Closed,COVID-19,COVID-19 Violations,COVID-19 Violations,2020-04-05 23:52:06,2020-04-10 18:11:30,Mobile App,,,,False,,False,119 Elmhurst Ave,NASHVILLE,5.0,37207,36.1962114,-86.77373539999998,"(36.1962114, -86.77373539999999)",5,4,4 days 18:19:24
3947,339482,Closed,COVID-19,COVID-19 Violations,COVID-19 Violations,2020-04-04 23:58:24,2020-04-10 18:15:07,hubNashville Community,,,,False,,False,704 51st Ave N,NASHVILLE,20.0,37209,36.155786625129,-86.84839674768654,"(36.15578662512899, -86.84839674768654)",4,4,5 days 18:16:43
3966,339596,Closed,COVID-19,COVID-19 Violations,COVID-19 Violations,2020-04-05 17:12:57,2020-04-13 16:04:15,hubNashville Community,,,,False,,False,4617 Sloan Rd,NASHVILLE,24.0,37209,36.13777199999999,-86.84055,"(36.13777199999999, -86.84055)",5,4,7 days 22:51:18
4017,350620,Closed,COVID-19,COVID-19 Violations,COVID-19 Violations,2020-04-22 16:24:48,2020-04-24 15:27:52,hubNashville Community,,,,False,,False,401 S Mt Juliet Rd,,,,36.16465656160762,-86.50789699325409,"(36.164656561607615, -86.50789699325409)",22,4,1 days 23:03:04
4027,350527,Closed,COVID-19,COVID-19 Violations,COVID-19 Violations,2020-04-22 15:21:24,2020-04-24 15:28:25,Phone,,,,False,,False,1400 Donelson Pike,NASHVILLE,13.0,37217,36.097570000000005,-86.67832,"(36.09757, -86.67832)",22,4,2 days 00:07:01
4097,339708,Closed,COVID-19,COVID-19 Violations,COVID-19 Violations,2020-04-05 22:15:53,2020-04-13 15:09:23,hubNashville Community,,,,False,,False,3353 Mimosa Dr,NASHVILLE,16.0,37211,36.09574844528226,-86.72436800839998,"(36.09574844528226, -86.72436800839999)",5,4,7 days 16:53:30
4107,339301,Closed,COVID-19,COVID-19 Violations,COVID-19 Violations,2020-04-04 14:27:23,2020-04-09 12:19:18,hubNashville Community,,,,False,,False,97B White Bridge Rd,NASHVILLE,24.0,37205,36.131293366471354,-86.85724588726137,"(36.131293366471354, -86.85724588726137)",4,4,4 days 21:51:55
4108,339473,Closed,COVID-19,COVID-19 Violations,COVID-19 Violations,2020-04-04 23:43:57,2020-04-10 17:11:17,hubNashville Community,,,,False,,False,3820 Franklin Pike,NASHVILLE,25.0,37204,36.10584706962161,-86.77154917578156,"(36.10584706962161, -86.77154917578156)",4,4,5 days 17:27:20
4130,339626,Closed,COVID-19,COVID-19 Violations,COVID-19 Violations,2020-04-05 18:37:23,2020-04-14 15:37:47,hubNashville Community,,,,False,,False,210 Anne Dallas Dudley Blvd,NASHVILLE,19.0,37219,36.163035,-86.782032,"(36.163035, -86.782032)",5,4,8 days 21:00:24
4179,339518,Closed,COVID-19,COVID-19 Violations,COVID-19 Violations,2020-04-05 03:23:38,2020-04-14 15:39:28,hubNashville Community,,,,False,,False,210 Anne Dallas Dudley Blvd,NASHVILLE,19.0,37219,36.163000000000004,-86.78200000000001,"(36.163, -86.782)",5,4,9 days 12:15:50
4208,339341,Closed,COVID-19,COVID-19 Violations,COVID-19 Violations,2020-04-04 16:33:08,2020-04-08 16:49:47,hubNashville Community,,,,False,,False,5520 Nolensville Pike,NASHVILLE,27.0,37211,36.04769339774354,-86.71345402830612,"(36.04769339774354, -86.71345402830613)",4,4,4 days 00:16:39
4226,339807,Closed,COVID-19,COVID-19 Violations,COVID-19 Violations,2020-04-06 06:03:54,2020-04-13 15:39:01,hubNashville Community,,,,False,,False,2807 Nolensville Pike,NASHVILLE,16.0,37211,36.11201591158524,-86.74614080674593,"(36.11201591158524, -86.74614080674593)",6,4,7 days 09:35:07
4236,393931,Closed,COVID-19,COVID-19 Violations,COVID-19 Violations,2020-06-17 04:10:09,2020-06-17 17:47:05,hubNashville Community,,,,False,,False,2611 McGavock Pk,NASHVILLE,15.0,37214,36.21769186163017,-86.69830499325407,"(36.217691861630165, -86.69830499325408)",17,6,0 days 13:36:56
4238,393327,Closed,COVID-19,COVID-19 Violations,COVID-19 Violations,2020-06-16 16:14:30,2020-06-17 17:38:44,Phone,,,,False,,False,2724 Murfreesboro Pike,ANTIOCH,29.0,37013,36.06929,-86.63252,"(36.06929, -86.63252)",16,6,1 days 01:24:14
4326,343810,Closed,COVID-19,COVID-19 Violations,COVID-19 Violations,2020-04-10 16:17:57,2020-04-15 15:03:28,Phone,,,,False,,False,2626 Murfreesboro Pike,NASHVILLE,29.0,37217,36.0731,-86.6368,"(36.0731, -86.6368)",10,4,4 days 22:45:31
4349,339504,Closed,COVID-19,COVID-19 Violations,COVID-19 Violations,2020-04-05 01:27:59,2020-04-09 16:58:10,hubNashville Community,,,,False,,False,4500 Murphy Rd,NASHVILLE,24.0,37209,36.14116840000001,-86.8405939,"(36.14116840000001, -86.8405939)",5,4,4 days 15:30:11
4372,339347,Closed,COVID-19,COVID-19 Violations,COVID-19 Violations,2020-04-04 16:52:09,2020-04-09 12:50:29,hubNashville Community,,,,False,,False,4011 Hillsboro Pike,NASHVILLE,25.0,37215,36.103599,-86.816358,"(36.103598999999996, -86.816358)",4,4,4 days 19:58:20
4397,339320,Closed,COVID-19,COVID-19 Violations,COVID-19 Violations,2020-04-04 15:34:33,2020-04-08 16:17:49,hubNashville Community,,,,False,,False,2535 Powell Ave,NASHVILLE,16.0,37204,36.1075618336896,-86.76534760488127,"(36.1075618336896, -86.76534760488126)",4,4,4 days 00:43:16
4431,339391,Closed,COVID-19,COVID-19 Violations,COVID-19 Violations,2020-04-04 18:57:28,2020-04-08 18:22:32,hubNashville Community,,,,False,,False,4601 Murphy Rd,NASHVILLE,24.0,37209,36.140023011597094,-86.8426866,"(36.140023011597094, -86.8426866)",4,4,3 days 23:25:04
4465,407723,Closed,COVID-19,COVID-19 Violations,COVID-19 Violations,2020-07-04 23:44:15,2020-07-06 17:51:33,hubNashville Community,,,,False,,False,Burger King,MADISON,8.0,37115,36.2646114,-86.71186920000001,"(36.2646114, -86.7118692)",4,7,1 days 18:07:18
4585,422690,Closed,COVID-19,COVID-19 Violations,COVID-19 Violations,2020-07-22 06:50:53,2020-07-22 19:06:44,hubNashville Community,,,,False,,False,5763 Nolensville Pike,,,,36.0468847115576,-86.71515620000001,"(36.0468847115576, -86.7151562)",22,7,0 days 12:15:51
4646,421749,Closed,COVID-19,COVID-19 Violations,COVID-19 Violations,2020-07-21 11:49:03,2020-07-21 17:37:44,Mobile App,,,,False,,False,956 Robertson Academy Rd,NASHVILLE,34.0,37220,36.0838511,-86.7892605,"(36.0838511, -86.7892605)",21,7,0 days 05:48:41
4656,371422,Closed,COVID-19,COVID-19 Violations,COVID-19 Violations,2020-05-19 12:51:30,2020-05-19 18:41:43,hubNashville Community,,,,False,,False,,NASHVILLE,19.0,37203,36.15658331160417,-86.78745279999998,"(36.15658331160417, -86.78745279999998)",19,5,0 days 05:50:13
4786,339768,Closed,COVID-19,COVID-19 Violations,COVID-19 Violations,2020-04-06 00:47:46,2020-04-10 16:51:32,hubNashville Community,,,,False,,False,1118 Gallatin Pike N,MADISON,10.0,37115,36.279724061656594,-86.70812886853402,"(36.279724061656594, -86.70812886853402)",6,4,4 days 16:03:46
4787,339775,Closed,COVID-19,COVID-19 Violations,COVID-19 Violations,2020-04-06 01:09:51,2020-04-13 15:07:53,hubNashville Community,,,,False,,False,1461 Woodfield Dr,NASHVILLE,4.0,37211,36.02018116154628,-86.71749359325409,"(36.020181161546276, -86.7174935932541)",6,4,7 days 13:58:02
4788,339778,Closed,COVID-19,COVID-19 Violations,COVID-19 Violations,2020-04-06 01:22:58,2020-04-13 13:32:42,hubNashville Community,,,,False,,False,3466 Lebanon Pike,HERMITAGE,14.0,37076,36.191605361619075,-86.62544510674589,"(36.19160536161907, -86.62544510674589)",6,4,7 days 12:09:44
4789,344310,Closed,COVID-19,COVID-19 Violations,COVID-19 Violations,2020-04-11 01:27:12,2020-04-15 18:19:08,hubNashville Community,,,,False,,False,1825 Old Murfreesboro Pike,NASHVILLE,29.0,37217,36.10009600000001,-86.65939159999998,"(36.10009600000001, -86.65939159999999)",11,4,4 days 16:51:56
4834,350928,Closed,COVID-19,COVID-19 Violations,COVID-19 Violations,2020-04-22 20:55:30,2020-04-24 15:30:46,Phone,,,,False,,False,539 Paragon Mills Rd,NASHVILLE,26.0,37211,36.0850213,-86.7270929,"(36.0850213, -86.7270929)",22,4,1 days 18:35:16
4835,351043,Closed,COVID-19,COVID-19 Violations,COVID-19 Violations,2020-04-23 01:21:27,2020-04-24 15:34:15,hubNashville Community,,,,False,,False,3056 Dickerson Pike,NASHVILLE,2.0,37207,36.2290935,-86.7597657,"(36.2290935, -86.7597657)",23,4,1 days 14:12:48
4838,339421,Closed,COVID-19,COVID-19 Violations,COVID-19 Violations,2020-04-04 20:09:09,2020-04-09 14:31:15,hubNashville Community,,,,False,,False,405 McNally Dr,NASHVILLE,26.0,37211,36.0921794,-86.7370601,"(36.0921794, -86.7370601)",4,4,4 days 18:22:06
4843,371769,Closed,COVID-19,COVID-19 Violations,COVID-19 Violations,2020-05-19 16:18:41,2020-05-20 15:41:33,Phone,,,,False,,False,8321 Sawyer Brown Rd,NASHVILLE,22.0,37221,36.070747999999995,-86.947891,"(36.070748, -86.947891)",19,5,0 days 23:22:52
4883,350600,Closed,COVID-19,COVID-19 Violations,COVID-19 Violations,2020-04-22 16:14:41,2020-04-24 15:26:29,hubNashville Community,,,,False,,False,801 Broadway,NASHVILLE,19.0,37203,36.15810746160485,-86.78300455,"(36.15810746160485, -86.78300455)",22,4,1 days 23:11:48
4887,426719,Closed,COVID-19,COVID-19 Violations,COVID-19 Violations,2020-07-25 21:01:46,2020-07-27 20:15:48,hubNashville Community,,,,False,,False,701 18th Ave N,NASHVILLE,19.0,37203,36.15112328894836,-86.7944931121643,"(36.15112328894836, -86.79449311216432)",25,7,1 days 23:14:02
4938,339654,Closed,COVID-19,COVID-19 Violations,COVID-19 Violations,2020-04-05 19:40:56,2020-04-10 16:12:55,hubNashville Community,,,,False,,False,1605 Debow St,OLD HICKORY,11.0,37138,36.25387226164556,-86.64895570419,"(36.25387226164556, -86.64895570419)",5,4,4 days 20:31:59
4993,339702,Closed,COVID-19,COVID-19 Violations,COVID-19 Violations,2020-04-05 22:09:59,2020-04-13 19:31:00,hubNashville Community,,,,False,,False,900 20th Ave S,NASHVILLE,19.0,37212,36.1486025,-86.7972922,"(36.1486025, -86.7972922)",5,4,7 days 21:21:01
5016,339449,Closed,COVID-19,COVID-19 Violations,COVID-19 Violations,2020-04-04 22:06:05,2020-04-09 15:06:06,Mobile App,,,,False,,False,106 Cummings Ct,ANTIOCH,28.0,37013,36.07072750515505,-86.68057054281235,"(36.07072750515505, -86.68057054281235)",4,4,4 days 17:00:01
5025,353890,Closed,COVID-19,COVID-19 Violations,COVID-19 Violations,2020-04-28 13:08:08,2020-04-28 17:46:45,Phone,,,,False,,False,1907 Baptist World Center Dr,NASHVILLE,2.0,37207,36.20465,-86.78945,"(36.20465, -86.78945)",28,4,0 days 04:38:37
5121,420908,Closed,COVID-19,COVID-19 Violations,COVID-19 Violations,2020-07-20 15:08:46,2020-07-21 17:25:36,Phone,,,,False,,False,4104 Hillsboro Cir,NASHVILLE,25.0,37215,36.10167819999999,-86.81926870000001,"(36.10167819999999, -86.8192687)",20,7,1 days 02:16:50
5150,437344,Closed,COVID-19,COVID-19 Violations,COVID-19 Violations,2020-08-04 17:25:47,2020-08-05 19:45:51,hubNashville Community,,,,False,,False,600 Dr. M.L.K. Jr Blvd,NASHVILLE,19.0,37219,36.165922200000004,-86.78423690000001,"(36.1659222, -86.7842369)",4,8,1 days 02:20:04
5153,455997,Closed,COVID-19,COVID-19 Violations,COVID-19 Violations,2020-09-01 14:07:54,2020-09-02 14:00:23,hubNashville Community,,,,False,,False,3819 Bedford Ave,NASHVILLE,25.0,37215,36.108189,-86.8205947,"(36.108189, -86.8205947)",1,9,0 days 23:52:29
5155,456334,Closed,COVID-19,COVID-19 Violations,COVID-19 Violations,2020-09-01 18:39:40,2020-09-02 13:59:15,Phone,,,,False,,False,515 Airpark Center Dr,NASHVILLE,13.0,37217,36.09732,-86.68051,"(36.09732, -86.68051)",1,9,0 days 19:19:35
5156,437881,Closed,COVID-19,COVID-19 Violations,COVID-19 Violations,2020-08-05 05:34:38,2020-08-05 17:47:19,hubNashville Community,,,,False,,False,219 US-70,NASHVILLE,19.0,37201,36.16152516160626,-86.77574159325407,"(36.161525161606264, -86.77574159325408)",5,8,0 days 12:12:41
5188,339463,Closed,COVID-19,COVID-19 Violations,COVID-19 Violations,2020-04-04 23:00:06,2020-04-09 15:16:00,hubNashville Community,,,,False,,False,3103 Morning Stroll Dr,NASHVILLE,6.0,37206,36.1852831922148,-86.71011129021005,"(36.1852831922148, -86.71011129021004)",4,4,4 days 16:15:54
5201,375600,Closed,COVID-19,COVID-19 Violations,COVID-19 Violations,2020-05-24 17:46:53,2020-05-26 14:48:06,Mobile App,,,,False,,False,2137 Elm Hill Marina,NASHVILLE,14.0,37214,36.13437627751373,-86.62201389670372,"(36.13437627751373, -86.62201389670372)",24,5,1 days 21:01:13
5212,339297,Closed,COVID-19,COVID-19 Violations,COVID-19 Violations,2020-04-04 14:11:42,2020-04-08 19:08:01,hubNashville Community,,,,False,,False,2011 24th Ave N,NASHVILLE,21.0,37208,36.183581758814675,-86.81582833377557,"(36.18358175881468, -86.81582833377558)",4,4,4 days 04:56:19
5214,453742,Closed,COVID-19,COVID-19 Violations,COVID-19 Violations,2020-08-27 20:11:52,2020-08-28 13:55:57,hubNashville Community,,,,False,,False,8044 Coley Davis Rd,NASHVILLE,22.0,37221,36.07271,-86.97142,"(36.07271, -86.97142)",27,8,0 days 17:44:05
5215,339283,Closed,COVID-19,COVID-19 Violations,COVID-19 Violations,2020-04-04 13:09:55,2020-04-09 13:06:28,hubNashville Community,,,,False,,False,6717 Centennial Blvd,,,,36.17253039999999,-86.8752708,"(36.17253039999999, -86.8752708)",4,4,4 days 23:56:33
5219,410895,Closed,COVID-19,COVID-19 Violations,COVID-19 Violations,2020-07-08 16:31:22,2020-07-09 16:33:36,Phone,,,,False,,False,Trousdale Dr,NASHVILLE,26.0,37220,36.07058,-86.75869,"(36.07058, -86.75869)",8,7,1 days 00:02:14
5229,339782,Closed,COVID-19,COVID-19 Violations,COVID-19 Violations,2020-04-06 01:28:37,2020-04-13 19:27:23,hubNashville Community,,,,False,,False,2002 Richard Jones Rd,NASHVILLE,25.0,37215,36.1048908,-86.8113127,"(36.1048908, -86.8113127)",6,4,7 days 17:58:46
5237,339668,Closed,COVID-19,COVID-19 Violations,COVID-19 Violations,2020-04-05 20:35:31,2020-04-09 19:09:18,hubNashville Community,,,,False,,False,3807 Nolensville Pike,NASHVILLE,26.0,37211,36.0876586,-86.73148020000001,"(36.0876586, -86.7314802)",5,4,3 days 22:33:47
5287,339510,Closed,COVID-19,COVID-19 Violations,COVID-19 Violations,2020-04-05 02:04:12,2020-04-13 13:49:43,hubNashville Community,,,,False,,False,300 Korean Veterans Blvd,NASHVILLE,19.0,37201,36.15766896160466,-86.77388680674594,"(36.15766896160466, -86.77388680674592)",5,4,8 days 11:45:31
5316,371408,Closed,COVID-19,COVID-19 Violations,COVID-19 Violations,2020-05-19 11:42:05,2020-05-19 18:41:55,hubNashville Community,,,,False,,False,6700 Cabot Dr,NASHVILLE,20.0,37209,36.1367325115957,-86.89487329999999,"(36.1367325115957, -86.89487329999999)",19,5,0 days 06:59:50
5338,350729,Closed,COVID-19,COVID-19 Violations,COVID-19 Violations,2020-04-22 17:59:52,2020-04-24 15:20:24,Phone,,,,False,,False,4502 Murphy Rd,NASHVILLE,24.0,37209,36.141259999999996,-86.84092,"(36.14126, -86.84092)",22,4,1 days 21:20:32
5413,354058,Closed,COVID-19,COVID-19 Violations,COVID-19 Violations,2020-04-28 15:31:19,2020-05-07 15:17:19,hubNashville Community,,,,False,,False,4005 Hillsboro Pike,NASHVILLE,25.0,37215,36.10464929999999,-86.8156625,"(36.10464929999999, -86.8156625)",28,4,8 days 23:46:00
5446,437694,Closed,COVID-19,COVID-19 Violations,COVID-19 Violations,2020-08-04 21:22:56,2020-08-05 18:05:05,Phone,,,,False,,False,6201 Hickory Valley Rd,NASHVILLE,23.0,37205,36.12232,-86.87101,"(36.12232, -86.87101)",4,8,0 days 20:42:09
5474,437589,Closed,COVID-19,COVID-19 Violations,COVID-19 Violations,2020-08-04 20:12:24,2020-08-05 17:54:21,hubNashville Community,,,,False,,False,5596 Nolensville Pike,NASHVILLE,27.0,37211,36.04722329999999,-86.71342659999998,"(36.0472233, -86.71342659999999)",4,8,0 days 21:41:57
5483,429089,Closed,COVID-19,COVID-19 Violations,COVID-19 Violations,2020-07-28 14:49:08,2020-07-29 17:26:46,hubNashville Community,,,,False,,False,5838 River Rd,NASHVILLE,35.0,37209,36.13359799999999,-86.91771700000001,"(36.13359799999999, -86.917717)",28,7,1 days 02:37:38
5500,437548,Closed,COVID-19,COVID-19 Violations,COVID-19 Violations,2020-08-04 19:43:39,2020-08-05 19:44:20,hubNashville Community,,,,False,,False,127 Athens Way,NASHVILLE,2.0,37228,36.196950761621345,-86.80051860674592,"(36.19695076162134, -86.80051860674592)",4,8,1 days 00:00:41
5540,363480,Closed,COVID-19,COVID-19 Violations,COVID-19 Violations,2020-05-10 00:00:13,2020-05-11 15:17:50,hubNashville Community,,,,False,,False,,ANTIOCH,28.0,37013,36.069311607032496,-86.68347397430166,"(36.06931160703249, -86.68347397430166)",10,5,1 days 15:17:37
5568,339494,Closed,COVID-19,COVID-19 Violations,COVID-19 Violations,2020-04-05 00:44:02,2020-04-13 15:48:09,hubNashville Community,,,,False,,False,5353 Cane Ridge Rd,ANTIOCH,32.0,37013,36.040905811555106,-86.66217440674593,"(36.040905811555106, -86.66217440674592)",5,4,8 days 15:04:07
5589,363419,Closed,COVID-19,COVID-19 Violations,COVID-19 Violations,2020-05-09 17:36:11,2020-05-11 15:00:43,hubNashville Community,,,,False,,False,9135 Carothers Pkwy,,,,35.959699411520646,-86.80258254999998,"(35.95969941152065, -86.80258254999998)",9,5,1 days 21:24:32
5590,339281,Closed,COVID-19,COVID-19 Violations,COVID-19 Violations,2020-04-04 12:54:06,2020-04-09 13:05:58,hubNashville Community,,,,False,,False,6717 Centennial Blvd,,,,36.17253039999999,-86.8752708,"(36.17253039999999, -86.8752708)",4,4,5 days 00:11:52
5591,339306,Closed,COVID-19,COVID-19 Violations,COVID-19 Violations,2020-04-04 14:51:32,2020-04-09 12:34:42,hubNashville Community,,,,False,,False,5828 Nolensville Pike,NASHVILLE,27.0,37211,36.04145119178832,-86.7128378661784,"(36.04145119178832, -86.71283786617839)",4,4,4 days 21:43:10
5592,339609,Closed,COVID-19,COVID-19 Violations,COVID-19 Violations,2020-04-05 17:36:25,2020-04-10 17:27:06,hubNashville Community,,,,False,,False,1921 Eastland Ave,NASHVILLE,6.0,37206,36.18259494338964,-86.7346869657222,"(36.18259494338963, -86.7346869657222)",5,4,4 days 23:50:41
5607,339754,Closed,COVID-19,COVID-19 Violations,COVID-19 Violations,2020-04-06 00:24:53,2020-04-13 13:30:08,hubNashville Community,,,,False,,False,5504 Old Hickory Blvd,HERMITAGE,12.0,37076,36.18119211161461,-86.60667399325409,"(36.181192111614614, -86.60667399325409)",6,4,7 days 13:05:15
5613,339439,Closed,COVID-19,COVID-19 Violations,COVID-19 Violations,2020-04-04 21:20:53,2020-04-09 14:06:23,hubNashville Community,,,,False,,False,5325 Hickory Hollow Ln,ANTIOCH,32.0,37013,36.04806711155807,-86.65360739325409,"(36.04806711155807, -86.6536073932541)",4,4,4 days 16:45:30
5614,339284,Closed,COVID-19,COVID-19 Violations,COVID-19 Violations,2020-04-04 13:15:39,2020-04-09 14:34:24,hubNashville Community,,,,False,,False,Nashville,,,,36.1626638,-86.78160159999999,"(36.1626638, -86.7816016)",4,4,5 days 01:18:45
5615,339308,Closed,COVID-19,COVID-19 Violations,COVID-19 Violations,2020-04-04 14:53:12,2020-04-09 12:34:59,hubNashville Community,,,,False,,False,1215 Gallatin Pike S,MADISON,7.0,37115,36.24678900000001,-86.720499,"(36.24678900000001, -86.720499)",4,4,4 days 21:41:47
5616,339773,Closed,COVID-19,COVID-19 Violations,COVID-19 Violations,2020-04-06 00:57:56,2020-04-10 17:05:38,hubNashville Community,,,,False,,False,12th Ave N & Broadway,NASHVILLE,19.0,37203,36.1565833,-86.7874528,"(36.1565833, -86.7874528)",6,4,4 days 16:07:42
5657,393488,Closed,COVID-19,COVID-19 Violations,COVID-19 Violations,2020-06-16 17:57:44,2020-06-17 17:48:25,Phone,,,,False,,False,5552 Old Hickory Blvd,HERMITAGE,12.0,37076,36.18071,-86.60476,"(36.18071, -86.60476)",16,6,0 days 23:50:41
5658,393957,Closed,COVID-19,COVID-19 Violations,COVID-19 Violations,2020-06-17 11:07:20,2020-06-17 17:34:39,Mobile App,,,,False,,False,408 2nd Ave N,,,,36.16836385797641,-86.77847888320684,"(36.168363857976416, -86.77847888320684)",17,6,0 days 06:27:19
5682,458375,Closed,COVID-19,COVID-19 Violations,COVID-19 Violations,2020-09-04 14:47:08,2020-09-08 14:22:18,hubNashville Community,,,,False,,False,1101 Broadway,NASHVILLE,19.0,37203,36.156411,-86.78673559999999,"(36.156411, -86.7867356)",4,9,3 days 23:35:10
5684,339739,Closed,COVID-19,COVID-19 Violations,COVID-19 Violations,2020-04-05 23:32:46,2020-04-13 13:56:44,hubNashville Community,,,,False,,False,301 14th Ave N,NASHVILLE,19.0,37203,36.15925116160531,-86.79324305,"(36.15925116160531, -86.79324305)",5,4,7 days 14:23:58
5692,339650,Closed,COVID-19,COVID-19 Violations,COVID-19 Violations,2020-04-05 19:35:43,2020-04-10 17:16:04,hubNashville Community,,,,False,,False,2310 Elliott Ave,NASHVILLE,17.0,37204,36.1280119,-86.7794482,"(36.1280119, -86.7794482)",5,4,4 days 21:40:21
5710,421747,Closed,COVID-19,COVID-19 Violations,COVID-19 Violations,2020-07-21 11:44:43,2020-07-21 17:37:31,Mobile App,,,,False,,False,942 Van Leer Dr,NASHVILLE,34.0,37220,36.085589,-86.788099,"(36.085589, -86.788099)",21,7,0 days 05:52:48
5717,339648,Closed,COVID-19,COVID-19 Violations,COVID-19 Violations,2020-04-05 19:30:10,2020-04-13 13:50:51,hubNashville Community,,,,False,,False,1015 2nd Ave N,NASHVILLE,19.0,37201,36.17518145985082,-86.78331965749433,"(36.17518145985082, -86.78331965749435)",5,4,7 days 18:20:41
5720,339512,Closed,COVID-19,COVID-19 Violations,COVID-19 Violations,2020-04-05 02:15:54,2020-04-14 15:29:26,hubNashville Community,,,,False,,False,201 6th Ave N,NASHVILLE,19.0,37219,36.1626638,-86.78160159999999,"(36.1626638, -86.7816016)",5,4,9 days 13:13:32
5739,343838,Closed,COVID-19,COVID-19 Violations,COVID-19 Violations,2020-04-10 16:41:50,2020-04-14 18:41:28,Phone,,,,False,,False,220 Great Circle Rd,NASHVILLE,2.0,37228,36.194140000000004,-86.7932,"(36.19414, -86.7932)",10,4,4 days 01:59:38
5838,375609,Closed,COVID-19,COVID-19 Violations,COVID-19 Violations,2020-05-24 18:29:15,2020-05-26 14:44:48,hubNashville Community,,,,False,,False,15563 Old Hickory Blvd,NASHVILLE,4.0,37211,36.03936196155439,-86.74238199999998,"(36.03936196155439, -86.74238199999999)",24,5,1 days 20:15:33
5846,441587,Closed,COVID-19,COVID-19 Violations,COVID-19 Violations,2020-08-10 16:22:51,2020-08-11 14:14:02,hubNashville Community,,,,False,,False,411 51st Ave N,NASHVILLE,24.0,37209,36.15270579999999,-86.8489146,"(36.1527058, -86.8489146)",10,8,0 days 21:51:11
5864,407674,Closed,COVID-19,COVID-19 Violations,COVID-19 Violations,2020-07-04 20:31:17,2020-07-06 17:30:13,hubNashville Community,,,,False,,False,1516 Gallatin Pike S,MADISON,8.0,37115,36.23752109824487,-86.72482735407637,"(36.23752109824487, -86.72482735407637)",4,7,1 days 20:58:56
5870,354421,Closed,COVID-19,COVID-19 Violations,COVID-19 Violations,2020-04-28 20:27:09,2020-05-01 14:34:02,Phone,,,,False,,False,255 French Landing Dr,NASHVILLE,2.0,37228,36.195029999999996,-86.79653,"(36.19503, -86.79653)",28,4,2 days 18:06:53
5880,354315,Closed,COVID-19,COVID-19 Violations,COVID-19 Violations,2020-04-28 19:13:23,2020-05-01 14:52:34,Mobile App,,,,False,,False,1224 18th Ave S,NASHVILLE,17.0,37212,36.142173326701176,-86.79509952664375,"(36.14217332670117, -86.79509952664375)",28,4,2 days 19:39:11
5940,363375,Closed,COVID-19,COVID-19 Violations,COVID-19 Violations,2020-05-09 14:49:19,2020-05-11 15:07:45,hubNashville Community,,,,False,,False,808 Madison Square,MADISON,8.0,37115,36.2555037,-86.7166795,"(36.2555037, -86.7166795)",9,5,2 days 00:18:26
5941,347671,Closed,COVID-19,COVID-19 Violations,COVID-19 Violations,2020-04-17 06:41:36,2020-04-20 16:36:37,hubNashville Community,,,,False,,False,121 Oak Valley Dr,NASHVILLE,2.0,37207,36.23197526163623,-86.76118339581,"(36.23197526163623, -86.76118339580998)",17,4,3 days 09:55:01
5966,412647,Closed,COVID-19,COVID-19 Violations,COVID-19 Violations,2020-07-09 23:46:37,2020-07-10 17:22:33,hubNashville Community,,,,False,,False,705 Massman Dr,NASHVILLE,15.0,37210,36.152055499999996,-86.7073139,"(36.1520555, -86.7073139)",9,7,0 days 17:35:56
5991,347633,Closed,COVID-19,COVID-19 Violations,COVID-19 Violations,2020-04-17 00:15:26,2020-04-20 15:32:46,hubNashville Community,,,,False,,False,1024 Mitchell Rd,NASHVILLE,6.0,37206,36.18538026161644,-86.71675290674591,"(36.18538026161644, -86.71675290674591)",17,4,3 days 15:17:20
6066,375679,Closed,COVID-19,COVID-19 Violations,COVID-19 Violations,2020-05-25 05:15:17,2020-05-26 14:43:44,hubNashville Community,,,,False,,False,210 Anne Dallas Dudley Blvd,NASHVILLE,19.0,37219,36.163000000000004,-86.78200000000001,"(36.163, -86.782)",25,5,1 days 09:28:27
6109,420791,Closed,COVID-19,COVID-19 Violations,COVID-19 Violations,2020-07-20 14:19:16,2020-07-21 17:48:57,Phone,,,,False,,False,2801 Charlotte Ave,NASHVILLE,21.0,37209,36.153252200000004,-86.8189745,"(36.1532522, -86.8189745)",20,7,1 days 03:29:41
6114,343783,Closed,COVID-19,COVID-19 Violations,COVID-19 Violations,2020-04-10 15:53:01,2020-04-17 13:38:21,hubNashville Community,,,,False,,False,5828 Leslie Ave,NASHVILLE,20.0,37209,36.156496211604136,-86.86179149325407,"(36.156496211604136, -86.86179149325407)",10,4,6 days 21:45:20
6115,344179,Closed,COVID-19,COVID-19 Violations,COVID-19 Violations,2020-04-10 21:37:25,2020-04-17 14:12:21,Phone,,,,False,,False,4324 Harding Pike,NASHVILLE,24.0,37205,36.12689,-86.84734,"(36.12689, -86.84734)",10,4,6 days 16:34:56
6150,344023,Closed,COVID-19,COVID-19 Violations,COVID-19 Violations,2020-04-10 19:16:42,2020-04-15 15:10:09,hubNashville Community,,,,False,,False,3817 Bryce Rd,NASHVILLE,4.0,37211,36.0201565,-86.72593909999998,"(36.0201565, -86.72593909999999)",10,4,4 days 19:53:27
6172,375649,Closed,COVID-19,COVID-19 Violations,COVID-19 Violations,2020-05-24 23:51:31,2020-05-26 14:50:36,hubNashville Community,,,,False,,False,210 Anne Dallas Dudley Blvd,NASHVILLE,19.0,37219,36.163000000000004,-86.78200000000001,"(36.163, -86.782)",24,5,1 days 14:59:05
6196,346979,Closed,COVID-19,COVID-19 Violations,COVID-19 Violations,2020-04-16 13:47:01,2020-04-20 16:36:00,Mobile App,,,,False,,False,1322 6th Ave N,NASHVILLE,19.0,37208,36.177933422204426,-86.79106615483761,"(36.17793342220443, -86.79106615483761)",16,4,4 days 02:48:59
6199,346977,Closed,COVID-19,COVID-19 Violations,COVID-19 Violations,2020-04-16 13:45:17,2020-04-21 13:55:12,hubNashville Community,,,,False,,False,1635 County Hospital Rd,NASHVILLE,2.0,37218,36.189242,-86.8386506,"(36.189242, -86.8386506)",16,4,5 days 00:09:55
6200,347387,Closed,COVID-19,COVID-19 Violations,COVID-19 Violations,2020-04-16 19:03:12,2020-04-21 13:48:55,Phone,,,,False,,False,1718 17th Ave N,,,,36.15766,-86.79836999999999,"(36.15766, -86.79837)",16,4,4 days 18:45:43
6223,344065,Closed,COVID-19,COVID-19 Violations,COVID-19 Violations,2020-04-10 20:10:18,2020-04-15 15:09:25,Phone,,,,False,,False,160 Antioch Pike,NASHVILLE,16.0,37211,36.10203,-86.72733000000001,"(36.10203, -86.72733)",10,4,4 days 18:59:07
6224,346931,Closed,COVID-19,COVID-19 Violations,COVID-19 Violations,2020-04-16 13:14:59,2020-04-20 15:36:32,Phone,,,,False,,False,601 Space Park S Dr,NASHVILLE,13.0,37211,36.10259,-86.71068000000001,"(36.10259, -86.71068)",16,4,4 days 02:21:33
6225,343876,Closed,COVID-19,COVID-19 Violations,COVID-19 Violations,2020-04-10 17:13:04,2020-04-20 15:48:50,hubNashville Community,,,,False,,False,3967 Nolensville Pike,NASHVILLE,26.0,37211,36.084197499999995,-86.7295402,"(36.0841975, -86.7295402)",10,4,9 days 22:35:46
6264,363332,Closed,COVID-19,COVID-19 Violations,COVID-19 Violations,2020-05-09 11:20:51,2020-05-11 15:18:07,hubNashville Community,,,,False,,False,700 Hadley Ave,OLD HICKORY,11.0,37138,36.263866799999995,-86.6481285,"(36.2638668, -86.6481285)",9,5,2 days 03:57:16
6267,422107,Closed,COVID-19,COVID-19 Violations,COVID-19 Violations,2020-07-21 16:25:59,2020-07-22 19:01:55,Mobile App,,,,False,,False,2050 Gallatin Pike N,MADISON,10.0,37115,36.304606400000004,-86.6941538,"(36.3046064, -86.6941538)",21,7,1 days 02:35:56
6273,340083,Closed,COVID-19,COVID-19 Violations,COVID-19 Violations,2020-04-06 15:07:15,2020-04-10 18:21:21,hubNashville Community,,,,False,,False,7034 Charlotte Pike,NASHVILLE,35.0,37209,36.13257768157705,-86.9064945635916,"(36.13257768157705, -86.9064945635916)",6,4,4 days 03:14:06
6278,421300,Closed,COVID-19,COVID-19 Violations,COVID-19 Violations,2020-07-20 19:08:05,2020-07-21 17:35:58,hubNashville Community,,,,False,,False,619 W Due West Ave,MADISON,8.0,37115,36.2488191,-86.73916070000001,"(36.2488191, -86.7391607)",20,7,0 days 22:27:53
6319,343830,Closed,COVID-19,COVID-19 Violations,COVID-19 Violations,2020-04-10 16:38:53,2020-04-15 18:05:43,Phone,,,,False,,False,601 Bakertown Rd,ANTIOCH,28.0,37013,36.07137,-86.68916999999999,"(36.07137, -86.68917)",10,4,5 days 01:26:50
6344,347356,Closed,COVID-19,COVID-19 Violations,COVID-19 Violations,2020-04-16 18:33:48,2020-04-20 15:30:17,Mobile App,,,,False,,False,205 12th Ave N,NASHVILLE,19.0,37203,36.15881047226721,-86.7897455021739,"(36.158810472267206, -86.7897455021739)",16,4,3 days 20:56:29
6420,343689,Closed,COVID-19,COVID-19 Violations,COVID-19 Violations,2020-04-10 14:49:50,2020-04-14 15:34:21,hubNashville Community,,,,False,,False,210 Anne Dallas Dudley Blvd,NASHVILLE,19.0,37219,36.163000000000004,-86.78200000000001,"(36.163, -86.782)",10,4,4 days 00:44:31
6439,463088,Closed,COVID-19,COVID-19 Violations,COVID-19 Violations,2020-09-13 19:21:17,2020-09-14 14:28:28,hubNashville Community,,,,False,,False,135 Belle Forest Cir,NASHVILLE,22.0,37221,36.07722301157046,-86.92381615000002,"(36.07722301157046, -86.92381615000001)",13,9,0 days 19:07:11
6440,425270,Closed,COVID-19,COVID-19 Violations,COVID-19 Violations,2020-07-24 14:14:09,2020-07-27 20:07:57,Phone,,,,False,,False,1107 Gallatin Ave,MADISON,7.0,37115,36.18972,-86.74529,"(36.18972, -86.74529)",24,7,3 days 05:53:48
6478,371206,Closed,COVID-19,COVID-19 Violations,COVID-19 Violations,2020-05-18 20:58:12,2020-05-19 17:23:27,Phone,,,,False,,False,409 Broadway,NASHVILLE,19.0,37203,36.16056,-86.77736,"(36.16056, -86.77736)",18,5,0 days 20:25:15
6495,339858,Closed,COVID-19,COVID-19 Violations,COVID-19 Violations,2020-04-06 13:15:09,2020-04-13 15:42:06,hubNashville Community,,,,False,,False,2315 Winford Ave,NASHVILLE,17.0,37211,36.11983823734924,-86.75534129423546,"(36.119838237349235, -86.75534129423545)",6,4,7 days 02:26:57
6496,340068,Closed,COVID-19,COVID-19 Violations,COVID-19 Violations,2020-04-06 15:02:15,2020-04-13 14:33:19,hubNashville Community,,,,False,,False,3760 Nolensville Pike,NASHVILLE,26.0,37211,36.089339,-86.731161,"(36.089339, -86.731161)",6,4,6 days 23:31:04
6497,339963,Closed,COVID-19,COVID-19 Violations,COVID-19 Violations,2020-04-06 14:14:51,2020-04-14 15:27:29,hubNashville Community,,,,False,,False,2201 West End Ave,NASHVILLE,18.0,37240,36.1447034,-86.8026551,"(36.1447034, -86.8026551)",6,4,8 days 01:12:38
6508,343982,Closed,COVID-19,COVID-19 Violations,COVID-19 Violations,2020-04-10 18:33:10,2020-04-15 15:10:26,Phone,,,,False,,False,4225 Nolensville Pike,NASHVILLE,27.0,37211,36.07522,-86.7257,"(36.07522, -86.7257)",10,4,4 days 20:37:16
6522,367042,Closed,COVID-19,COVID-19 Violations,COVID-19 Violations,2020-05-13 21:11:34,2020-05-14 16:16:41,hubNashville Community,,,,False,,False,3049 Dickerson Pike,NASHVILLE,8.0,37207,36.22889910000001,-86.75805720000001,"(36.22889910000001, -86.7580572)",13,5,0 days 19:05:07
6563,456528,Closed,COVID-19,COVID-19 Violations,COVID-19 Violations,2020-09-01 21:09:51,2020-09-02 14:18:23,hubNashville Community,,,,False,,False,5106 Old Hickory Blvd,NASHVILLE,1.0,37218,36.2122006,-86.92013349999998,"(36.2122006, -86.92013349999999)",1,9,0 days 17:08:32
6597,371474,Closed,COVID-19,COVID-19 Violations,COVID-19 Violations,2020-05-19 13:30:01,2020-05-19 18:43:04,hubNashville Community,,,,False,,False,7044 Charlotte Pike,NASHVILLE,35.0,37209,36.13169166159358,-86.90685444999998,"(36.13169166159358, -86.90685444999998)",19,5,0 days 05:13:03
6601,350827,Closed,COVID-19,COVID-19 Violations,COVID-19 Violations,2020-04-22 19:23:05,2020-04-24 15:19:15,hubNashville Community,,,,False,,False,1715 Old Fort Pkwy,,,,35.8452682,-86.41766299999998,"(35.8452682, -86.41766299999999)",22,4,1 days 19:56:10
6605,453452,Closed,COVID-19,COVID-19 Violations,COVID-19 Violations,2020-08-27 16:28:19,2020-08-28 13:50:24,Phone,,,,False,,False,527 Thompson Ln,NASHVILLE,16.0,37211,36.11099,-86.74961,"(36.11099, -86.74961)",27,8,0 days 21:22:05
6617,343921,Closed,COVID-19,COVID-19 Violations,COVID-19 Violations,2020-04-10 17:40:06,2020-04-15 18:08:19,hubNashville Community,,,,False,,False,617 Bakertown Rd,ANTIOCH,28.0,37013,36.07149712336968,-86.68829479986114,"(36.07149712336968, -86.68829479986114)",10,4,5 days 00:28:13
6644,340073,Closed,COVID-19,COVID-19 Violations,COVID-19 Violations,2020-04-06 15:04:12,2020-04-14 15:51:25,hubNashville Community,,,,False,,False,8197 Londonberry Rd,NASHVILLE,35.0,37221,36.062478061564185,-86.97691035,"(36.06247806156419, -86.97691035)",6,4,8 days 00:47:13
6649,393860,Closed,COVID-19,COVID-19 Violations,COVID-19 Violations,2020-06-16 23:27:56,2020-06-17 17:40:10,hubNashville Community,,,,False,,False,415 Church St,NASHVILLE,19.0,37219,36.1631054,-86.7793026,"(36.1631054, -86.7793026)",16,6,0 days 18:12:14
6686,437288,Closed,COVID-19,COVID-19 Violations,COVID-19 Violations,2020-08-04 16:53:48,2020-08-05 18:03:35,Phone,,,,False,,False,1418 Church St,NASHVILLE,19.0,37203,36.1577,-86.79271,"(36.1577, -86.79271)",4,8,1 days 01:09:47
6777,437912,Closed,COVID-19,COVID-19 Violations,COVID-19 Violations,2020-08-05 12:45:20,2020-08-05 18:02:56,hubNashville Community,,,,False,,False,4710 Charlotte Ave,NASHVILLE,24.0,37209,36.152444200000005,-86.8445829,"(36.1524442, -86.8445829)",5,8,0 days 05:17:36
6835,442890,Closed,COVID-19,COVID-19 Violations,COVID-19 Violations,2020-08-11 21:39:05,2020-08-12 16:12:55,hubNashville Community,,,,False,,False,345 40th Ave N,NASHVILLE,24.0,37209,36.15228479999999,-86.83404490000001,"(36.15228479999999, -86.8340449)",11,8,0 days 18:33:50
6836,354196,Closed,COVID-19,COVID-19 Violations,COVID-19 Violations,2020-04-28 17:17:45,2020-05-01 14:58:11,Phone,,,,False,,False,1132 Murfreesboro Pike,NASHVILLE,13.0,37217,36.1253109,-86.70857120000001,"(36.1253109, -86.7085712)",28,4,2 days 21:40:26
6865,339566,Closed,COVID-19,COVID-19 Violations,COVID-19 Violations,2020-04-05 14:58:01,2020-04-14 15:29:12,hubNashville Community,,,,False,,False,210 ANNE DALLAS DUDLEY BLVD,NASHVILLE,19.0,37219,36.16297842435196,-86.78219154729288,"(36.16297842435196, -86.78219154729287)",5,4,9 days 00:31:11
6866,343885,Closed,COVID-19,COVID-19 Violations,COVID-19 Violations,2020-04-10 17:19:43,2020-04-15 18:17:44,Phone,,,,False,,False,621 Bradford Ave,NASHVILLE,17.0,37204,36.12924,-86.77419,"(36.12924, -86.77419)",10,4,5 days 00:58:01
6871,393967,Closed,COVID-19,COVID-19 Violations,COVID-19 Violations,2020-06-17 12:00:23,2020-06-17 17:47:05,hubNashville Community,,,,False,,False,613 S Mt Juliet Rd,,,,36.16307951160693,-86.51205700000001,"(36.16307951160693, -86.51205700000001)",17,6,0 days 05:46:42
6921,367553,New,COVID-19,COVID-19 Violations,COVID-19 Violations,2020-05-14 15:53:29,,hubNashville Community,,,,False,,False,4010 Lebanon Pike,HERMITAGE,14.0,37076,36.19649601162113,-86.62168770674593,"(36.196496011621136, -86.62168770674592)",14,5,
6932,437650,Closed,COVID-19,COVID-19 Violations,COVID-19 Violations,2020-08-04 20:54:14,2020-08-05 17:47:33,hubNashville Community,,,,False,,False,20 Grundy St,NASHVILLE,19.0,37203,36.158510761604965,-86.78806490674593,"(36.158510761604965, -86.78806490674592)",4,8,0 days 20:53:19
6933,339821,Closed,COVID-19,COVID-19 Violations,COVID-19 Violations,2020-04-06 12:25:42,2020-04-13 14:09:14,hubNashville Community,,,,False,,False,570 Metroplex Dr,NASHVILLE,13.0,37211,36.095302000000004,-86.7056422,"(36.095302, -86.7056422)",6,4,7 days 01:43:32
6955,339855,Closed,COVID-19,COVID-19 Violations,COVID-19 Violations,2020-04-06 13:13:57,2020-04-14 15:27:51,Phone,,,,False,,False,2201 West End Ave,NASHVILLE,18.0,37240,36.1481768,-86.8026728,"(36.1481768, -86.8026728)",6,4,8 days 02:13:54
6956,347621,Closed,COVID-19,COVID-19 Violations,COVID-19 Violations,2020-04-16 23:41:57,2020-04-20 15:33:13,hubNashville Community,,,,False,,False,500 Gallatin Ave,NASHVILLE,5.0,37206,36.181475761614756,-86.74975279580997,"(36.181475761614756, -86.74975279580997)",16,4,3 days 15:51:16
7051,425080,Closed,COVID-19,COVID-19 Violations,COVID-19 Violations,2020-07-24 13:04:56,2020-07-24 17:22:43,hubNashville Community,,,,False,,False,4124 Gallatin Pike,NASHVILLE,7.0,37216,36.222333,-86.7258363,"(36.222333, -86.7258363)",24,7,0 days 04:17:47
7089,339903,Closed,COVID-19,COVID-19 Violations,COVID-19 Violations,2020-04-06 13:40:20,2020-04-13 19:29:09,hubNashville Community,,,,False,,False,2609 Gallatin Pike,NASHVILLE,5.0,37216,36.19743020000001,-86.74238390000002,"(36.19743020000001, -86.74238390000001)",6,4,7 days 05:48:49
7149,344215,Closed,COVID-19,COVID-19 Violations,COVID-19 Violations,2020-04-10 22:41:29,2020-04-14 18:45:03,hubNashville Community,,,,False,,False,281 Cumberland Bend,NASHVILLE,2.0,37228,36.192518299999996,-86.78966369999998,"(36.1925183, -86.78966369999999)",10,4,3 days 20:03:34
7166,394036,Closed,COVID-19,COVID-19 Violations,COVID-19 Violations,2020-06-17 13:15:28,2020-06-18 16:16:32,Phone,,,,False,,False,5705 Charlotte Pike,NASHVILLE,20.0,37209,36.1492204,-86.8606581,"(36.1492204, -86.8606581)",17,6,1 days 03:01:04
7167,422140,Closed,COVID-19,COVID-19 Violations,COVID-19 Violations,2020-07-21 16:48:05,2020-07-22 18:36:35,hubNashville Community,,,,False,,False,Powell Pl,NASHVILLE,16.0,37204,36.104689799999996,-86.7642608,"(36.1046898, -86.7642608)",21,7,1 days 01:48:30
7187,343957,Closed,COVID-19,COVID-19 Violations,COVID-19 Violations,2020-04-10 18:14:49,2020-04-17 14:57:38,Mobile App,,,,False,,False,3531 West End Ave,NASHVILLE,24.0,37205,36.13295143500612,-86.82393059134483,"(36.13295143500612, -86.82393059134483)",10,4,6 days 20:42:49
7252,437642,Closed,COVID-19,COVID-19 Violations,COVID-19 Violations,2020-08-04 20:51:53,2020-08-05 17:51:55,hubNashville Community,,,,False,,False,21B Fern Ave,NASHVILLE,5.0,37207,36.195731099999996,-86.77460529999998,"(36.1957311, -86.77460529999999)",4,8,0 days 21:00:02
7274,346954,Closed,COVID-19,COVID-19 Violations,COVID-19 Violations,2020-04-16 13:30:27,2020-04-20 15:33:57,Phone,,,,False,,False,1727 Seifried St,NASHVILLE,21.0,37208,36.18192599999999,-86.81417599999997,"(36.18192599999999, -86.81417599999999)",16,4,4 days 02:03:30
7310,424895,Closed,COVID-19,COVID-19 Violations,COVID-19 Violations,2020-07-23 23:34:45,2020-07-24 17:19:39,hubNashville Community,,,,False,,False,102 Woodmont Blvd,NASHVILLE,24.0,37205,36.124455,-86.8466863,"(36.124455, -86.8466863)",23,7,0 days 17:44:54
7321,429264,Closed,COVID-19,COVID-19 Violations,COVID-19 Violations,2020-07-28 16:13:39,2020-07-29 17:31:35,hubNashville Community,,,,False,,False,1911 Division St,NASHVILLE,19.0,37203,36.14974116160125,-86.79676440419,"(36.14974116160125, -86.79676440419001)",28,7,1 days 01:17:56
